%time,field.header.seq,field.header.stamp,field.header.frame_id,field.ns,field.id,field.type,field.action,field.pose.position.x,field.pose.position.y,field.pose.position.z,field.pose.orientation.x,field.pose.orientation.y,field.pose.orientation.z,field.pose.orientation.w,field.scale.x,field.scale.y,field.scale.z,field.color.r,field.color.g,field.color.b,field.color.a,field.lifetime,field.frame_locked,field.text,field.mesh_resource,field.mesh_use_embedded_materials
1450008891373056473,723,1450008891162589637,/world,trajectory,740,1,0,0.00129963837244,0.0384257491392,-0.00403121074863,0.0,0.0,0.0,0.0,0.006,0.006,0.006,0.0,0.0,0.5,1.0,0,0,,,0
1450008891373160254,724,1450008891242476700,/world,trajectory,741,1,0,0.00126855885642,0.0384283180898,-0.00414005346896,0.0,0.0,0.0,0.0,0.006,0.006,0.006,0.0,0.0,0.5,1.0,0,0,,,0
1450008891373347727,725,1450008891343367475,/world,trajectory,742,1,0,0.00129470741997,0.0384308680286,-0.00417253562501,0.0,0.0,0.0,0.0,0.006,0.006,0.006,0.0,0.0,0.5,1.0,0,0,,,0
1450008891460004052,726,1450008891456794375,/world,trajectory,743,1,0,0.0012927735987,0.0384449586716,-0.00414322034311,0.0,0.0,0.0,0.0,0.006,0.006,0.006,0.0,0.0,0.5,1.0,0,0,,,0
1450008891637171682,727,1450008891636902174,/world,trajectory,744,1,0,0.00130291645762,0.0384614034476,-0.00415183967771,0.0,0.0,0.0,0.0,0.006,0.006,0.006,0.0,0.0,0.5,1.0,0,0,,,0
1450008891793546349,728,1450008891793484004,/world,trajectory,745,1,0,0.00135518788219,0.0384177018724,-0.00413598794986,0.0,0.0,0.0,0.0,0.006,0.006,0.006,0.0,0.0,0.5,1.0,0,0,,,0
1450008891885864156,729,1450008891885367769,/world,trajectory,746,1,0,0.00140595613935,0.0384370629163,-0.00408318313538,0.0,0.0,0.0,0.0,0.006,0.006,0.006,0.0,0.0,0.5,1.0,0,0,,,0
1450008891966612891,730,1450008891960830533,/world,trajectory,747,1,0,0.00133213093987,0.0384784297825,-0.00413752321586,0.0,0.0,0.0,0.0,0.006,0.006,0.006,0.0,0.0,0.5,1.0,0,0,,,0
1450008892068876295,731,1450008892066302963,/world,trajectory,748,1,0,0.00134052017808,0.0384697458997,-0.00412892978581,0.0,0.0,0.0,0.0,0.006,0.006,0.006,0.0,0.0,0.5,1.0,0,0,,,0
1450008892208846481,732,1450008892208477520,/world,trajectory,749,1,0,0.00130046128047,0.0384815774287,-0.00399845763554,0.0,0.0,0.0,0.0,0.006,0.006,0.006,0.0,0.0,0.5,1.0,0,0,,,0
1450008892312766665,733,1450008892312410886,/world,trajectory,750,1,0,0.00134798691003,0.0384482615458,-0.00406871783954,0.0,0.0,0.0,0.0,0.006,0.006,0.006,0.0,0.0,0.5,1.0,0,0,,,0
1450008892406280927,734,1450008892405678621,/world,trajectory,751,1,0,0.00125772250062,0.0384975576002,-0.00401464803972,0.0,0.0,0.0,0.0,0.006,0.006,0.006,0.0,0.0,0.5,1.0,0,0,,,0
1450008892505802020,735,1450008892505595425,/world,trajectory,752,1,0,0.00132199394946,0.0384752968434,-0.00417886928262,0.0,0.0,0.0,0.0,0.006,0.006,0.006,0.0,0.0,0.5,1.0,0,0,,,0
1450008892628288658,736,1450008892626245331,/world,trajectory,753,1,0,0.00133272344684,0.0384789205102,-0.0041860613391,0.0,0.0,0.0,0.0,0.006,0.006,0.006,0.0,0.0,0.5,1.0,0,0,,,0
1450008892760000049,737,1450008892759715889,/world,trajectory,754,1,0,0.00135951307783,0.0383959153196,-0.00419682301726,0.0,0.0,0.0,0.0,0.006,0.006,0.006,0.0,0.0,0.5,1.0,0,0,,,0
1450008892859001830,738,1450008892858015224,/world,trajectory,755,1,0,0.00131032302218,0.0384419625253,-0.0040588801477,0.0,0.0,0.0,0.0,0.006,0.006,0.006,0.0,0.0,0.5,1.0,0,0,,,0
1450008892993282338,739,1450008892992183361,/world,trajectory,756,1,0,0.00131772714868,0.0384287395367,-0.00421304763553,0.0,0.0,0.0,0.0,0.006,0.006,0.006,0.0,0.0,0.5,1.0,0,0,,,0
1450008893184340906,740,1450008893184269332,/world,trajectory,757,1,0,0.00123350811082,0.0384718548632,-0.00404695681356,0.0,0.0,0.0,0.0,0.006,0.006,0.006,0.0,0.0,0.5,1.0,0,0,,,0
1450008893379351748,741,1450008893378981480,/world,trajectory,758,1,0,0.00121788097117,0.0385236823517,-0.00396190300212,0.0,0.0,0.0,0.0,0.006,0.006,0.006,0.0,0.0,0.5,1.0,0,0,,,0
1450008893503161530,742,1450008893502939331,/world,trajectory,759,1,0,0.00123332991358,0.0384551041278,-0.00403435786009,0.0,0.0,0.0,0.0,0.006,0.006,0.006,0.0,0.0,0.5,1.0,0,0,,,0
1450008893675985054,743,1450008893675569800,/world,trajectory,760,1,0,0.00123332991358,0.0384551041278,-0.00403435786009,0.0,0.0,0.0,0.0,0.006,0.006,0.006,0.0,0.0,0.5,1.0,0,0,,,0
1450008893904135723,744,1450008893903870579,/world,trajectory,761,1,0,0.00126982846058,0.0384774450797,-0.00417182859017,0.0,0.0,0.0,0.0,0.006,0.006,0.006,0.0,0.0,0.5,1.0,0,0,,,0
1450008894046289667,745,1450008894045777184,/world,trajectory,762,1,0,0.00126884061405,0.0384787892193,-0.00419981447711,0.0,0.0,0.0,0.0,0.006,0.006,0.006,0.0,0.0,0.5,1.0,0,0,,,0
1450008894159956848,746,1450008894158082232,/world,trajectory,763,1,0,0.00126609952892,0.0385240181474,-0.0042908832046,0.0,0.0,0.0,0.0,0.006,0.006,0.006,0.0,0.0,0.5,1.0,0,0,,,0
1450008894326902615,747,1450008894323210867,/world,trajectory,764,1,0,0.00126206172041,0.0385625265492,-0.00419961574367,0.0,0.0,0.0,0.0,0.006,0.006,0.006,0.0,0.0,0.5,1.0,0,0,,,0
1450008894503744327,748,1450008894503509272,/world,trajectory,765,1,0,0.00127603925599,0.0385670706203,-0.00424325797181,0.0,0.0,0.0,0.0,0.006,0.006,0.006,0.0,0.0,0.5,1.0,0,0,,,0
1450008894729446902,749,1450008894728762545,/world,trajectory,766,1,0,0.0012554432232,0.0385015490478,-0.00408808381817,0.0,0.0,0.0,0.0,0.006,0.006,0.006,0.0,0.0,0.5,1.0,0,0,,,0
1450008895006791380,750,1450008895006038258,/world,trajectory,767,1,0,0.00137205854736,0.0385233341432,-0.00407852368268,0.0,0.0,0.0,0.0,0.006,0.006,0.006,0.0,0.0,0.5,1.0,0,0,,,0
1450008895578633444,751,1450008895578396790,/world,trajectory,768,1,0,0.0013377148875,0.0385017452008,-0.00406208354207,0.0,0.0,0.0,0.0,0.006,0.006,0.006,0.0,0.0,0.5,1.0,0,0,,,0
1450008895937574131,752,1450008895936851650,/world,trajectory,769,1,0,0.00140606581436,0.0385304626836,-0.00415559028778,0.0,0.0,0.0,0.0,0.006,0.006,0.006,0.0,0.0,0.5,1.0,0,0,,,0
1450008896203994672,753,1450008896203911987,/world,trajectory,770,1,0,0.00143411024328,0.0385417058331,-0.00417045582333,0.0,0.0,0.0,0.0,0.006,0.006,0.006,0.0,0.0,0.5,1.0,0,0,,,0
1450008896629424534,754,1450008896629268114,/world,trajectory,771,1,0,0.00141347624663,0.0385000870262,-0.00428731282721,0.0,0.0,0.0,0.0,0.006,0.006,0.006,0.0,0.0,0.5,1.0,0,0,,,0
1450008896799766107,755,1450008896795746323,/world,trajectory,772,1,0,0.00131282641214,0.0384874514895,-0.00408322979478,0.0,0.0,0.0,0.0,0.006,0.006,0.006,0.0,0.0,0.5,1.0,0,0,,,0
1450008897253179774,756,1450008897252583934,/world,trajectory,773,1,0,0.00137477577213,0.0384763237691,-0.0041614050302,0.0,0.0,0.0,0.0,0.006,0.006,0.006,0.0,0.0,0.5,1.0,0,0,,,0
1450008897947032434,757,1450008897946592421,/world,trajectory,774,1,0,0.00136862179303,0.0385037578765,-0.00399668996911,0.0,0.0,0.0,0.0,0.006,0.006,0.006,0.0,0.0,0.5,1.0,0,0,,,0
1450008898630078030,758,1450008898629894444,/world,trajectory,775,1,0,0.00134590773951,0.0385267756541,-0.00411044405619,0.0,0.0,0.0,0.0,0.006,0.006,0.006,0.0,0.0,0.5,1.0,0,0,,,0
1450008899902376865,759,1450008899901825432,/world,trajectory,776,1,0,0.00134590773951,0.0385267756541,-0.00411044405619,0.0,0.0,0.0,0.0,0.006,0.006,0.006,0.0,0.0,0.5,1.0,0,0,,,0
1450008902923930305,760,1450008902922950433,/world,trajectory,777,1,0,0.0013378722284,0.0385958383212,-0.00417152465023,0.0,0.0,0.0,0.0,0.006,0.006,0.006,0.0,0.0,0.5,1.0,0,0,,,0
1450008908787213813,761,1450008908786426363,/world,trajectory,778,1,0,0.00134614594683,0.0384750336838,-0.0040907775875,0.0,0.0,0.0,0.0,0.006,0.006,0.006,0.0,0.0,0.5,1.0,0,0,,,0
1450008910427633577,762,1450008910427254071,/world,trajectory,779,1,0,0.00133441969385,0.0384941282736,-0.00409197312852,0.0,0.0,0.0,0.0,0.006,0.006,0.006,0.0,0.0,0.5,1.0,0,0,,,0
1450008912884945506,763,1450008912884324778,/world,trajectory,780,1,0,0.00135494898374,0.0384969887773,-0.00409052349009,0.0,0.0,0.0,0.0,0.006,0.006,0.006,0.0,0.0,0.5,1.0,0,0,,,0
1450008925744249780,764,1450008925732007307,/world,trajectory,781,1,0,0.00133019813284,0.0385416614134,-0.00410167929358,0.0,0.0,0.0,0.0,0.006,0.006,0.006,0.0,0.0,0.5,1.0,0,0,,,0
1450008928764486716,765,1450008928763602855,/world,trajectory,782,1,0,0.00128142017149,0.0385572224359,-0.00410710948204,0.0,0.0,0.0,0.0,0.006,0.006,0.006,0.0,0.0,0.5,1.0,0,0,,,0
1450008931371507307,766,1450008931371234698,/world,trajectory,783,1,0,0.00126329522963,0.0386003724813,-0.004212117707,0.0,0.0,0.0,0.0,0.006,0.006,0.006,0.0,0.0,0.5,1.0,0,0,,,0
1450008932259817567,767,1450008932259132682,/world,trajectory,784,1,0,0.00127807011735,0.0386084139841,-0.00412533529265,0.0,0.0,0.0,0.0,0.006,0.006,0.006,0.0,0.0,0.5,1.0,0,0,,,0
1450008933571989326,768,1450008933571652609,/world,trajectory,785,1,0,0.00130238386644,0.0386014936684,-0.00411352456873,0.0,0.0,0.0,0.0,0.006,0.006,0.006,0.0,0.0,0.5,1.0,0,0,,,0
1450008934950990411,769,1450008934948912066,/world,trajectory,786,1,0,0.00131514214882,0.0385560055072,-0.00415157742018,0.0,0.0,0.0,0.0,0.006,0.006,0.006,0.0,0.0,0.5,1.0,0,0,,,0
1450008950048960110,770,1450008950048569393,/world,trajectory,787,1,0,0.00134715592321,0.0385556920241,-0.0042648479534,0.0,0.0,0.0,0.0,0.006,0.006,0.006,0.0,0.0,0.5,1.0,0,0,,,0
1450008951360397212,771,1450008951360163880,/world,trajectory,788,1,0,0.00131463689012,0.038575208933,-0.00415965506126,0.0,0.0,0.0,0.0,0.006,0.006,0.006,0.0,0.0,0.5,1.0,0,0,,,0
1450008953134050989,772,1450008953133756608,/world,trajectory,789,1,0,0.00128487029184,0.0385667213048,-0.00416377418922,0.0,0.0,0.0,0.0,0.006,0.006,0.006,0.0,0.0,0.5,1.0,0,0,,,0
1450008957627829013,773,1450008957626956576,/world,trajectory,790,1,0,0.00131519616758,0.0386013028839,-0.0043441039277,0.0,0.0,0.0,0.0,0.006,0.006,0.006,0.0,0.0,0.5,1.0,0,0,,,0
1450008984295007929,774,1450008984294935344,/world,trajectory,791,1,0,0.00129999795927,0.0386256129775,-0.00423124342874,0.0,0.0,0.0,0.0,0.006,0.006,0.006,0.0,0.0,0.5,1.0,0,0,,,0
1450008984778890228,775,1450008984778666412,/world,trajectory,792,1,0,0.00128183234941,0.03870338673,-0.00423211182583,0.0,0.0,0.0,0.0,0.006,0.006,0.006,0.0,0.0,0.5,1.0,0,0,,,0
1450008986034132296,776,1450008986034045704,/world,trajectory,793,1,0,0.0013567369297,0.0386235871849,-0.00431015454204,0.0,0.0,0.0,0.0,0.006,0.006,0.006,0.0,0.0,0.5,1.0,0,0,,,0
1450008986980266429,777,1450008986979907868,/world,trajectory,794,1,0,0.00131241276928,0.0388776036054,-0.00420865966711,0.0,0.0,0.0,0.0,0.006,0.006,0.006,0.0,0.0,0.5,1.0,0,0,,,0
1450008989389697930,778,1450008989389463325,/world,trajectory,795,1,0,0.00131753638884,0.0389633128486,-0.0040220626079,0.0,0.0,0.0,0.0,0.006,0.006,0.006,0.0,0.0,0.5,1.0,0,0,,,0
1450008995878118995,779,1450008995877925805,/world,trajectory,796,1,0,0.00140468206164,0.0392354226134,-0.00433236388293,0.0,0.0,0.0,0.0,0.006,0.006,0.006,0.0,0.0,0.5,1.0,0,0,,,0
1450008997030298294,780,1450008997027413246,/world,trajectory,797,1,0,0.00131225523682,0.0394109123552,-0.00411106974968,0.0,0.0,0.0,0.0,0.006,0.006,0.006,0.0,0.0,0.5,1.0,0,0,,,0
1450008997761970118,781,1450008997760645193,/world,trajectory,798,1,0,0.00131305454448,0.0397397430792,-0.0043283812554,0.0,0.0,0.0,0.0,0.006,0.006,0.006,0.0,0.0,0.5,1.0,0,0,,,0
1450008998332261013,782,1450008998330657892,/world,trajectory,799,1,0,0.00137692261509,0.0402315662337,-0.00440272879015,0.0,0.0,0.0,0.0,0.006,0.006,0.006,0.0,0.0,0.5,1.0,0,0,,,0
1450008999191941024,783,1450008999191368636,/world,trajectory,800,1,0,0.00139516511565,0.0403900038984,-0.00436594946308,0.0,0.0,0.0,0.0,0.006,0.006,0.006,0.0,0.0,0.5,1.0,0,0,,,0
1450008999547148621,784,1450008999546797245,/world,trajectory,801,1,0,0.001400993707,0.0407675624303,-0.00452752560942,0.0,0.0,0.0,0.0,0.006,0.006,0.006,0.0,0.0,0.5,1.0,0,0,,,0
1450008999915361671,785,1450008999914720095,/world,trajectory,802,1,0,0.00136211383706,0.0410035236884,-0.00450720721448,0.0,0.0,0.0,0.0,0.006,0.006,0.006,0.0,0.0,0.5,1.0,0,0,,,0
1450009000269476464,786,1450009000268797556,/world,trajectory,803,1,0,0.00127886878791,0.0412879755395,-0.00446861472147,0.0,0.0,0.0,0.0,0.006,0.006,0.006,0.0,0.0,0.5,1.0,0,0,,,0
1450009000618733366,787,1450009000617210656,/world,trajectory,804,1,0,0.00137968889358,0.0414053331702,-0.00460967473303,0.0,0.0,0.0,0.0,0.006,0.006,0.006,0.0,0.0,0.5,1.0,0,0,,,0
1450009000755252019,788,1450009000754782611,/world,trajectory,805,1,0,0.00127509168637,0.041763769723,-0.00440704060091,0.0,0.0,0.0,0.0,0.006,0.006,0.006,0.0,0.0,0.5,1.0,0,0,,,0
1450009000897631912,789,1450009000897265864,/world,trajectory,806,1,0,0.00131369867491,0.0419590351638,-0.00462626169504,0.0,0.0,0.0,0.0,0.006,0.006,0.006,0.0,0.0,0.5,1.0,0,0,,,0
1450009001062778856,790,1450009001062480109,/world,trajectory,807,1,0,0.00133332454184,0.0421770343458,-0.00467490035224,0.0,0.0,0.0,0.0,0.006,0.006,0.006,0.0,0.0,0.5,1.0,0,0,,,0
1450009001221154110,791,1450009001214580279,/world,trajectory,808,1,0,0.00122201197722,0.0423614573626,-0.00431712361992,0.0,0.0,0.0,0.0,0.006,0.006,0.006,0.0,0.0,0.5,1.0,0,0,,,0
1450009001358284815,792,1450009001357188702,/world,trajectory,809,1,0,0.00129141436184,0.0424910141051,-0.00450993578233,0.0,0.0,0.0,0.0,0.006,0.006,0.006,0.0,0.0,0.5,1.0,0,0,,,0
1450009001358292909,793,1450009001357237825,/world,pts,53,1,2,0.0,3.1534787265e-317,6.95260754864e-310,0.0,0.0,0.0,0.0,0.006,0.006,0.006,0.00149153824896,-0.0424427501857,0.00488689821213,1.0,0,0,,,0
1450009001488402266,794,1450009001488106701,/world,trajectory,810,1,0,0.00129947223969,0.0427776481569,-0.00446373826912,0.0,0.0,0.0,0.0,0.006,0.006,0.006,0.0,0.0,0.5,1.0,0,0,,,0
1450009001697085808,795,1450009001694406176,/world,trajectory,811,1,0,0.00145186729361,0.0429926533961,-0.004590519282,0.0,0.0,0.0,0.0,0.006,0.006,0.006,0.0,0.0,0.5,1.0,0,0,,,0
1450009001828913048,796,1450009001828369931,/world,trajectory,812,1,0,0.00144845001341,0.043315651007,-0.00443909654364,0.0,0.0,0.0,0.0,0.006,0.006,0.006,0.0,0.0,0.5,1.0,0,0,,,0
1450009001983340468,797,1450009001982696640,/world,trajectory,813,1,0,0.0014164326392,0.0435898630044,-0.00460214555672,0.0,0.0,0.0,0.0,0.006,0.006,0.006,0.0,0.0,0.5,1.0,0,0,,,0
1450009002114587637,798,1450009002114233953,/world,trajectory,814,1,0,0.00132874242022,0.0436826706359,-0.00460509889611,0.0,0.0,0.0,0.0,0.006,0.006,0.006,0.0,0.0,0.5,1.0,0,0,,,0
1450009002254211622,799,1450009002253929594,/world,trajectory,815,1,0,0.00123155253918,0.0438770121239,-0.00452376475019,0.0,0.0,0.0,0.0,0.006,0.006,0.006,0.0,0.0,0.5,1.0,0,0,,,0
1450009002399621633,800,1450009002393856426,/world,trajectory,816,1,0,0.00127070459464,0.0440801627911,-0.00455270014059,0.0,0.0,0.0,0.0,0.006,0.006,0.006,0.0,0.0,0.5,1.0,0,0,,,0
1450009002559666211,801,1450009002556750091,/world,trajectory,817,1,0,0.00127853383386,0.0441811722313,-0.00465522088306,0.0,0.0,0.0,0.0,0.006,0.006,0.006,0.0,0.0,0.5,1.0,0,0,,,0
1450009002706383776,802,1450009002706127482,/world,trajectory,818,1,0,0.00124823826973,0.044407453365,-0.00459823029738,0.0,0.0,0.0,0.0,0.006,0.006,0.006,0.0,0.0,0.5,1.0,0,0,,,0
1450009002828864902,803,1450009002827300949,/world,trajectory,819,1,0,0.00118758364495,0.044752332321,-0.00477431576119,0.0,0.0,0.0,0.0,0.006,0.006,0.006,0.0,0.0,0.5,1.0,0,0,,,0
1450009002956721335,804,1450009002956360995,/world,trajectory,820,1,0,0.00113316038347,0.0448118514868,-0.00459728215305,0.0,0.0,0.0,0.0,0.006,0.006,0.006,0.0,0.0,0.5,1.0,0,0,,,0
1450009003058343544,805,1450009003057333863,/world,trajectory,821,1,0,0.00115470560638,0.0448442290405,-0.00452177797746,0.0,0.0,0.0,0.0,0.006,0.006,0.006,0.0,0.0,0.5,1.0,0,0,,,0
1450009003058357230,806,1450009003057338265,/world,pts,105,1,2,0.0,3.1534787265e-317,6.95260754864e-310,0.0,0.0,0.0,0.0,0.006,0.006,0.006,0.00137572933454,-0.044793959707,0.00493895914406,1.0,0,0,,,0
1450009003201292892,807,1450009003200663505,/world,trajectory,822,1,0,0.00122229540217,0.0448914494268,-0.004495423691,0.0,0.0,0.0,0.0,0.006,0.006,0.006,0.0,0.0,0.5,1.0,0,0,,,0
1450009003346542754,808,1450009003345922895,/world,trajectory,823,1,0,0.001367260593,0.0449744198252,-0.00449435920245,0.0,0.0,0.0,0.0,0.006,0.006,0.006,0.0,0.0,0.5,1.0,0,0,,,0
1450009003451505536,809,1450009003449288872,/world,trajectory,824,1,0,0.00133801934405,0.0450777566934,-0.00468296296039,0.0,0.0,0.0,0.0,0.006,0.006,0.006,0.0,0.0,0.5,1.0,0,0,,,0
1450009003571568266,810,1450009003571458966,/world,trajectory,825,1,0,0.00137887950019,0.0451091401361,-0.0046337698952,0.0,0.0,0.0,0.0,0.006,0.006,0.006,0.0,0.0,0.5,1.0,0,0,,,0
1450009003674817379,811,1450009003674049079,/world,trajectory,826,1,0,0.00145939937535,0.045352875903,-0.00454142199052,0.0,0.0,0.0,0.0,0.006,0.006,0.006,0.0,0.0,0.5,1.0,0,0,,,0
1450009003819663182,812,1450009003819076189,/world,trajectory,827,1,0,0.00142131464998,0.0456377731056,-0.00465238287905,0.0,0.0,0.0,0.0,0.006,0.006,0.006,0.0,0.0,0.5,1.0,0,0,,,0
1450009003942304353,813,1450009003942067532,/world,trajectory,828,1,0,0.00141188594382,0.0457899162869,-0.00481505549041,0.0,0.0,0.0,0.0,0.006,0.006,0.006,0.0,0.0,0.5,1.0,0,0,,,0
1450009004090470632,814,1450009004090012536,/world,trajectory,829,1,0,0.00127613709097,0.045915761047,-0.00469746683067,0.0,0.0,0.0,0.0,0.006,0.006,0.006,0.0,0.0,0.5,1.0,0,0,,,0
1450009004090474192,815,1450009004090016356,/world,pts,96,1,2,0.0,3.1534787265e-317,6.95260754864e-310,0.0,0.0,0.0,0.0,0.006,0.006,0.006,0.0015020101564,-0.0458623208106,0.00513258762658,1.0,0,0,,,0
1450009004247026863,816,1450009004236552827,/world,trajectory,830,1,0,0.00117212734735,0.0461792419757,-0.00462224622748,0.0,0.0,0.0,0.0,0.006,0.006,0.006,0.0,0.0,0.5,1.0,0,0,,,0
1450009004419870965,817,1450009004419518266,/world,trajectory,831,1,0,0.00117755861731,0.0462319316304,-0.00471030468465,0.0,0.0,0.0,0.0,0.006,0.006,0.006,0.0,0.0,0.5,1.0,0,0,,,0
1450009004523791803,818,1450009004523597075,/world,trajectory,832,1,0,0.00116056698397,0.0462984135499,-0.00486290345377,0.0,0.0,0.0,0.0,0.006,0.006,0.006,0.0,0.0,0.5,1.0,0,0,,,0
1450009004648257852,819,1450009004647892075,/world,trajectory,833,1,0,0.00118696256907,0.0463379773795,-0.00472047792157,0.0,0.0,0.0,0.0,0.006,0.006,0.006,0.0,0.0,0.5,1.0,0,0,,,0
1450009004853859228,820,1450009004850689486,/world,trajectory,834,1,0,0.00118750268147,0.0464955180045,-0.0045585526766,0.0,0.0,0.0,0.0,0.006,0.006,0.006,0.0,0.0,0.5,1.0,0,0,,,0
1450009005003120917,821,1450009005002321009,/world,trajectory,835,1,0,0.00138951124727,0.0464979720406,-0.00464014636628,0.0,0.0,0.0,0.0,0.006,0.006,0.006,0.0,0.0,0.5,1.0,0,0,,,0
1450009005185702992,822,1450009005185025390,/world,trajectory,836,1,0,0.00138842987672,0.0465781643111,-0.00464199099724,0.0,0.0,0.0,0.0,0.006,0.006,0.006,0.0,0.0,0.5,1.0,0,0,,,0
1450009005343474297,823,1450009005340072373,/world,trajectory,837,1,0,0.00142774511694,0.0466928952557,-0.00454967469595,0.0,0.0,0.0,0.0,0.006,0.006,0.006,0.0,0.0,0.5,1.0,0,0,,,0
1450009005596145622,824,1450009005586775041,/world,trajectory,838,1,0,0.00139447425717,0.0467095171876,-0.00460073974429,0.0,0.0,0.0,0.0,0.006,0.006,0.006,0.0,0.0,0.5,1.0,0,0,,,0
1450009005596158830,825,1450009005586828433,/world,pts,87,1,2,0.0,3.1534787265e-317,6.95260754864e-310,0.0,0.0,0.0,0.0,0.006,0.006,0.006,0.00164483906701,-0.0466539338231,0.00505919754505,1.0,0,0,,,0
1450009005679816930,826,1450009005677433676,/world,trajectory,839,1,0,0.00135231451037,0.0469213050146,-0.00460191781503,0.0,0.0,0.0,0.0,0.006,0.006,0.006,0.0,0.0,0.5,1.0,0,0,,,0
1450009005809289102,827,1450009005808269539,/world,trajectory,840,1,0,0.00140229145094,0.0471931431525,-0.00474679903013,0.0,0.0,0.0,0.0,0.006,0.006,0.006,0.0,0.0,0.5,1.0,0,0,,,0
1450009005971460394,828,1450009005971245614,/world,trajectory,841,1,0,0.0013599774925,0.0472263584008,-0.00474897426087,0.0,0.0,0.0,0.0,0.006,0.006,0.006,0.0,0.0,0.5,1.0,0,0,,,0
1450009006120507401,829,1450009006118880768,/world,trajectory,842,1,0,0.00125794544672,0.047624542046,-0.00471805019679,0.0,0.0,0.0,0.0,0.006,0.006,0.006,0.0,0.0,0.5,1.0,0,0,,,0
1450009006269094994,830,1450009006268743074,/world,trajectory,843,1,0,0.00123724132159,0.0477081546923,-0.00482233264453,0.0,0.0,0.0,0.0,0.006,0.006,0.006,0.0,0.0,0.5,1.0,0,0,,,0
1450009006476088621,831,1450009006475611503,/world,trajectory,844,1,0,0.0011702295621,0.0478981700076,-0.0045321446444,0.0,0.0,0.0,0.0,0.006,0.006,0.006,0.0,0.0,0.5,1.0,0,0,,,0
1450009006599082185,832,1450009006598497724,/world,trajectory,845,1,0,0.00122847885066,0.0479539123061,-0.00477306097734,0.0,0.0,0.0,0.0,0.006,0.006,0.006,0.0,0.0,0.5,1.0,0,0,,,0
1450009006780028702,833,1450009006779810808,/world,trajectory,846,1,0,0.00115660595606,0.0480931914015,-0.00450448555315,0.0,0.0,0.0,0.0,0.006,0.006,0.006,0.0,0.0,0.5,1.0,0,0,,,0
1450009006968479456,834,1450009006968336924,/world,trajectory,847,1,0,0.00130811379148,0.0481181131619,-0.0048766685722,0.0,0.0,0.0,0.0,0.006,0.006,0.006,0.0,0.0,0.5,1.0,0,0,,,0
1450009007247235749,835,1450009007246626267,/world,trajectory,848,1,0,0.00132099451804,0.048229080107,-0.0047833650021,0.0,0.0,0.0,0.0,0.006,0.006,0.006,0.0,0.0,0.5,1.0,0,0,,,0
1450009007380220822,836,1450009007379075841,/world,trajectory,849,1,0,0.00130823553238,0.0483689606851,-0.00479565067189,0.0,0.0,0.0,0.0,0.006,0.006,0.006,0.0,0.0,0.5,1.0,0,0,,,0
1450009007793110463,837,1450009007792585338,/world,trajectory,850,1,0,0.00135441543193,0.0485265445697,-0.00480899154891,0.0,0.0,0.0,0.0,0.006,0.006,0.006,0.0,0.0,0.5,1.0,0,0,,,0
1450009007974115125,838,1450009007974036194,/world,trajectory,851,1,0,0.00140467140853,0.048666875581,-0.00491983139806,0.0,0.0,0.0,0.0,0.006,0.006,0.006,0.0,0.0,0.5,1.0,0,0,,,0
1450009008208308581,839,1450009008208229863,/world,trajectory,852,1,0,0.0014656602437,0.0488038214264,-0.0049238451585,0.0,0.0,0.0,0.0,0.006,0.006,0.006,0.0,0.0,0.5,1.0,0,0,,,0
1450009008652441626,840,1450009008652075500,/world,trajectory,853,1,0,0.00137083573679,0.0490673406865,-0.00481383791179,0.0,0.0,0.0,0.0,0.006,0.006,0.006,0.0,0.0,0.5,1.0,0,0,,,0
1450009008880964650,841,1450009008880845382,/world,trajectory,854,1,0,0.00137266865811,0.0491182150202,-0.00488762113246,0.0,0.0,0.0,0.0,0.006,0.006,0.006,0.0,0.0,0.5,1.0,0,0,,,0
1450009009209923042,842,1450009009209696026,/world,trajectory,855,1,0,0.00139330400086,0.0492161075755,-0.0048100764616,0.0,0.0,0.0,0.0,0.006,0.006,0.006,0.0,0.0,0.5,1.0,0,0,,,0
1450009026880977619,843,1450009026876637666,/world,trajectory,856,1,0,0.00142596440008,0.0494541085739,-0.00483676675349,0.0,0.0,0.0,0.0,0.006,0.006,0.006,0.0,0.0,0.5,1.0,0,0,,,0
1450009028077838196,844,1450009028077474658,/world,trajectory,857,1,0,0.00139022925813,0.0494847455961,-0.00470575962682,0.0,0.0,0.0,0.0,0.006,0.006,0.006,0.0,0.0,0.5,1.0,0,0,,,0
1450009029184258014,845,1450009029184013143,/world,trajectory,858,1,0,0.00140892589055,0.0496362198166,-0.00467363844086,0.0,0.0,0.0,0.0,0.006,0.006,0.006,0.0,0.0,0.5,1.0,0,0,,,0
1450009031479434230,846,1450009031477978825,/world,trajectory,859,1,0,0.00140858868678,0.0498189050691,-0.00473581342136,0.0,0.0,0.0,0.0,0.006,0.006,0.006,0.0,0.0,0.5,1.0,0,0,,,0
1450009032638515256,847,1450009032638437256,/world,trajectory,860,1,0,0.00143014193077,0.0498346485788,-0.00511032324558,0.0,0.0,0.0,0.0,0.006,0.006,0.006,0.0,0.0,0.5,1.0,0,0,,,0
1450009033408163675,848,1450009033407836847,/world,trajectory,861,1,0,0.00134254793771,0.0499047879598,-0.00490263508205,0.0,0.0,0.0,0.0,0.006,0.006,0.006,0.0,0.0,0.5,1.0,0,0,,,0
1450009033587024634,849,1450009033586537336,/world,trajectory,862,1,0,0.00138020820168,0.0499846488896,-0.00494727240153,0.0,0.0,0.0,0.0,0.006,0.006,0.006,0.0,0.0,0.5,1.0,0,0,,,0
1450009033809399387,850,1450009033809019962,/world,trajectory,863,1,0,0.00143634027436,0.0502451000007,-0.00496767944916,0.0,0.0,0.0,0.0,0.006,0.006,0.006,0.0,0.0,0.5,1.0,0,0,,,0
1450009034041017726,851,1450009034036714486,/world,trajectory,864,1,0,0.00134716192803,0.050206233457,-0.00499618646126,0.0,0.0,0.0,0.0,0.006,0.006,0.006,0.0,0.0,0.5,1.0,0,0,,,0
1450009034306991142,852,1450009034306143746,/world,trajectory,865,1,0,0.00129019315112,0.0502919219549,-0.00499869643542,0.0,0.0,0.0,0.0,0.006,0.006,0.006,0.0,0.0,0.5,1.0,0,0,,,0
1450009034499192968,853,1450009034498441945,/world,trajectory,866,1,0,0.00134891036131,0.0504486233998,-0.00493493233711,0.0,0.0,0.0,0.0,0.006,0.006,0.006,0.0,0.0,0.5,1.0,0,0,,,0
1450009035129252532,854,1450009035128962043,/world,trajectory,867,1,0,0.00129587406346,0.0506706947967,-0.0047136027353,0.0,0.0,0.0,0.0,0.006,0.006,0.006,0.0,0.0,0.5,1.0,0,0,,,0
1450009035633788240,855,1450009035633045841,/world,trajectory,868,1,0,0.00134666335077,0.050789148373,-0.00492095839542,0.0,0.0,0.0,0.0,0.006,0.006,0.006,0.0,0.0,0.5,1.0,0,0,,,0
1450009036228483373,856,1450009036228151866,/world,trajectory,869,1,0,0.00139242475641,0.0507968013353,-0.00511509531192,0.0,0.0,0.0,0.0,0.006,0.006,0.006,0.0,0.0,0.5,1.0,0,0,,,0
1450009037929318806,857,1450009037929186578,/world,trajectory,870,1,0,0.00157529799862,0.0508232537348,-0.00524814935812,0.0,0.0,0.0,0.0,0.006,0.006,0.006,0.0,0.0,0.5,1.0,0,0,,,0
1450009040290390546,858,1450009040289444673,/world,trajectory,871,1,0,0.00159133581046,0.0508958980917,-0.00518570072752,0.0,0.0,0.0,0.0,0.006,0.006,0.006,0.0,0.0,0.5,1.0,0,0,,,0
1450009045222651402,859,1450009045222575511,/world,trajectory,872,1,0,0.00149722464735,0.0511663018543,-0.00512873868401,0.0,0.0,0.0,0.0,0.006,0.006,0.006,0.0,0.0,0.5,1.0,0,0,,,0
1450009049425222568,860,1450009049424763378,/world,trajectory,873,1,0,0.00138518142815,0.051581873018,-0.00506791081768,0.0,0.0,0.0,0.0,0.006,0.006,0.006,0.0,0.0,0.5,1.0,0,0,,,0
1450009054655398876,861,1450009054655323463,/world,trajectory,874,1,0,0.00141754198641,0.0517144412414,-0.00508696959738,0.0,0.0,0.0,0.0,0.006,0.006,0.006,0.0,0.0,0.5,1.0,0,0,,,0
1450009055820239169,862,1450009055820098216,/world,trajectory,875,1,0,0.00140275602402,0.0517555940471,-0.00503894361599,0.0,0.0,0.0,0.0,0.006,0.006,0.006,0.0,0.0,0.5,1.0,0,0,,,0
1450009066920359464,863,1450009066919148360,/world,trajectory,876,1,0,0.00140135546859,0.0518831812777,-0.00499101412958,0.0,0.0,0.0,0.0,0.006,0.006,0.006,0.0,0.0,0.5,1.0,0,0,,,0
1450009067783466770,864,1450009067782703084,/world,trajectory,877,1,0,0.00138882501502,0.0519637238048,-0.0051123752022,0.0,0.0,0.0,0.0,0.006,0.006,0.006,0.0,0.0,0.5,1.0,0,0,,,0
1450009068389522851,865,1450009068389227275,/world,trajectory,878,1,0,0.00136263694938,0.0520340875748,-0.00500968405126,0.0,0.0,0.0,0.0,0.006,0.006,0.006,0.0,0.0,0.5,1.0,0,0,,,0
1450009069063960758,866,1450009069063630833,/world,trajectory,879,1,0,0.00137888573817,0.0522246268356,-0.00507007485671,0.0,0.0,0.0,0.0,0.006,0.006,0.006,0.0,0.0,0.5,1.0,0,0,,,0
1450009069540889295,867,1450009069539964150,/world,trajectory,880,1,0,0.00135006636069,0.0525508946962,-0.00517499045888,0.0,0.0,0.0,0.0,0.006,0.006,0.006,0.0,0.0,0.5,1.0,0,0,,,0
1450009069828924535,868,1450009069826271262,/world,trajectory,881,1,0,0.00138468541518,0.0525719628719,-0.00512901305378,0.0,0.0,0.0,0.0,0.006,0.006,0.006,0.0,0.0,0.5,1.0,0,0,,,0
1450009070112076708,869,1450009070111352765,/world,trajectory,882,1,0,0.00141798490034,0.0526936039229,-0.00504830219477,0.0,0.0,0.0,0.0,0.006,0.006,0.006,0.0,0.0,0.5,1.0,0,0,,,0
1450009070303017537,870,1450009070302881362,/world,trajectory,883,1,0,0.00152687582121,0.0528131360504,-0.00506887455323,0.0,0.0,0.0,0.0,0.006,0.006,0.006,0.0,0.0,0.5,1.0,0,0,,,0
1450009070461833135,871,1450009070461349855,/world,trajectory,884,1,0,0.00159128064728,0.0529908629303,-0.0050053342926,0.0,0.0,0.0,0.0,0.006,0.006,0.006,0.0,0.0,0.5,1.0,0,0,,,0
1450009070628405874,872,1450009070627944113,/world,trajectory,885,1,0,0.00161574052021,0.0531181107059,-0.00504633410935,0.0,0.0,0.0,0.0,0.006,0.006,0.006,0.0,0.0,0.5,1.0,0,0,,,0
1450009070857759099,873,1450009070857517320,/world,trajectory,886,1,0,0.00162976463199,0.0531850667409,-0.00500114239267,0.0,0.0,0.0,0.0,0.006,0.006,0.006,0.0,0.0,0.5,1.0,0,0,,,0
1450009071066598354,874,1450009071065831849,/world,trajectory,887,1,0,0.00154884530062,0.0532658814086,-0.00512310347515,0.0,0.0,0.0,0.0,0.006,0.006,0.006,0.0,0.0,0.5,1.0,0,0,,,0
1450009071225906348,875,1450009071225770885,/world,trajectory,888,1,0,0.0015285067469,0.0534445139048,-0.00538124001689,0.0,0.0,0.0,0.0,0.006,0.006,0.006,0.0,0.0,0.5,1.0,0,0,,,0
1450009071415678536,876,1450009071415574338,/world,trajectory,889,1,0,0.00144245067566,0.053644794134,-0.00514282017361,0.0,0.0,0.0,0.0,0.006,0.006,0.006,0.0,0.0,0.5,1.0,0,0,,,0
1450009071742156689,877,1450009071740572418,/world,trajectory,890,1,0,0.00146483986545,0.0538572679964,-0.00500859520816,0.0,0.0,0.0,0.0,0.006,0.006,0.006,0.0,0.0,0.5,1.0,0,0,,,0
1450009071874078162,878,1450009071873553391,/world,trajectory,891,1,0,0.00155344218369,0.05397105972,-0.0050457542713,0.0,0.0,0.0,0.0,0.006,0.006,0.006,0.0,0.0,0.5,1.0,0,0,,,0
1450009072020291603,879,1450009072018627279,/world,trajectory,892,1,0,0.00153032489432,0.0541048452406,-0.00505346671006,0.0,0.0,0.0,0.0,0.006,0.006,0.006,0.0,0.0,0.5,1.0,0,0,,,0
1450009072205652203,880,1450009072205484029,/world,trajectory,893,1,0,0.0015482188633,0.0543448684921,-0.00523919768339,0.0,0.0,0.0,0.0,0.006,0.006,0.006,0.0,0.0,0.5,1.0,0,0,,,0
1450009072354810860,881,1450009072354605710,/world,trajectory,894,1,0,0.0015750162116,0.0544842467155,-0.00528106910854,0.0,0.0,0.0,0.0,0.006,0.006,0.006,0.0,0.0,0.5,1.0,0,0,,,0
1450009072505144968,882,1450009072498691735,/world,trajectory,895,1,0,0.00147540955277,0.0545385397654,-0.00501565142418,0.0,0.0,0.0,0.0,0.006,0.006,0.006,0.0,0.0,0.5,1.0,0,0,,,0
1450009072633143021,883,1450009072626012697,/world,trajectory,896,1,0,0.00150820881871,0.0546675110341,-0.00529671717935,0.0,0.0,0.0,0.0,0.006,0.006,0.006,0.0,0.0,0.5,1.0,0,0,,,0
1450009072794604231,884,1450009072794517322,/world,trajectory,897,1,0,0.00150620224701,0.0548616497272,-0.00536128527045,0.0,0.0,0.0,0.0,0.006,0.006,0.006,0.0,0.0,0.5,1.0,0,0,,,0
1450009073105392055,885,1450009073105303307,/world,trajectory,898,1,0,0.00145097878649,0.0551561112614,-0.0053018959332,0.0,0.0,0.0,0.0,0.006,0.006,0.006,0.0,0.0,0.5,1.0,0,0,,,0
1450009073213929024,886,1450009073213531134,/world,trajectory,899,1,0,0.00136981685786,0.055296376569,-0.00523342181531,0.0,0.0,0.0,0.0,0.006,0.006,0.006,0.0,0.0,0.5,1.0,0,0,,,0
1450009073363304267,887,1450009073362923286,/world,trajectory,900,1,0,0.00146282689973,0.0554356676351,-0.00525922215113,0.0,0.0,0.0,0.0,0.006,0.006,0.006,0.0,0.0,0.5,1.0,0,0,,,0
1450009073647631163,888,1450009073645581739,/world,trajectory,901,1,0,0.00141561443995,0.0554436361059,-0.00520138300979,0.0,0.0,0.0,0.0,0.006,0.006,0.006,0.0,0.0,0.5,1.0,0,0,,,0
1450009073863485839,889,1450009073863320499,/world,trajectory,902,1,0,0.00144454324295,0.055658410339,-0.00538608918279,0.0,0.0,0.0,0.0,0.006,0.006,0.006,0.0,0.0,0.5,1.0,0,0,,,0
1450009074046888395,890,1450009074042430615,/world,trajectory,903,1,0,0.00147797615097,0.0558043211164,-0.00535136886648,0.0,0.0,0.0,0.0,0.006,0.006,0.006,0.0,0.0,0.5,1.0,0,0,,,0
1450009074174317757,891,1450009074172267303,/world,trajectory,904,1,0,0.00137939558692,0.0559687588906,-0.00533915306564,0.0,0.0,0.0,0.0,0.006,0.006,0.006,0.0,0.0,0.5,1.0,0,0,,,0
1450009074359362486,892,1450009074353123197,/world,trajectory,905,1,0,0.00134806181264,0.0560406126032,-0.00530891660099,0.0,0.0,0.0,0.0,0.006,0.006,0.006,0.0,0.0,0.5,1.0,0,0,,,0
1450009074774880301,893,1450009074774796260,/world,trajectory,906,1,0,0.00127647898883,0.056036786952,-0.00536762299818,0.0,0.0,0.0,0.0,0.006,0.006,0.006,0.0,0.0,0.5,1.0,0,0,,,0
1450009074944792129,894,1450009074942503785,/world,trajectory,907,1,0,0.0013562258643,0.0559313671334,-0.00531892993652,0.0,0.0,0.0,0.0,0.006,0.006,0.006,0.0,0.0,0.5,1.0,0,0,,,0
1450009075100180739,895,1450009075100096585,/world,trajectory,908,1,0,0.0012913231527,0.0561644965554,-0.0053256433887,0.0,0.0,0.0,0.0,0.006,0.006,0.006,0.0,0.0,0.5,1.0,0,0,,,0
1450009075248005017,896,1450009075247935899,/world,trajectory,909,1,0,0.0012789782764,0.0564487956212,-0.00534034404174,0.0,0.0,0.0,0.0,0.006,0.006,0.006,0.0,0.0,0.5,1.0,0,0,,,0
1450009075427094906,897,1450009075426488486,/world,trajectory,910,1,0,0.00131170985964,0.0565583814854,-0.00539919771084,0.0,0.0,0.0,0.0,0.006,0.006,0.006,0.0,0.0,0.5,1.0,0,0,,,0
1450009075579141548,898,1450009075578646056,/world,trajectory,911,1,0,0.00130941215231,0.0568141275038,-0.00514156441621,0.0,0.0,0.0,0.0,0.006,0.006,0.006,0.0,0.0,0.5,1.0,0,0,,,0
1450009075770176757,899,1450009075769864476,/world,trajectory,912,1,0,0.00137685148184,0.0569915604091,-0.00522988104303,0.0,0.0,0.0,0.0,0.006,0.006,0.006,0.0,0.0,0.5,1.0,0,0,,,0
1450009075956508769,900,1450009075956067666,/world,trajectory,913,1,0,0.00139149556925,0.057111850485,-0.00542273785615,0.0,0.0,0.0,0.0,0.006,0.006,0.006,0.0,0.0,0.5,1.0,0,0,,,0
1450009076156124330,901,1450009076155845593,/world,trajectory,914,1,0,0.00138228413984,0.0570947074611,-0.00539282432467,0.0,0.0,0.0,0.0,0.006,0.006,0.006,0.0,0.0,0.5,1.0,0,0,,,0
1450009076334062059,902,1450009076333678429,/world,trajectory,915,1,0,0.00134064765809,0.0571543649728,-0.00541573080414,0.0,0.0,0.0,0.0,0.006,0.006,0.006,0.0,0.0,0.5,1.0,0,0,,,0
1450009076528976527,903,1450009076528757396,/world,trajectory,916,1,0,0.0013951595579,0.0572138992056,-0.00551700553593,0.0,0.0,0.0,0.0,0.006,0.006,0.006,0.0,0.0,0.5,1.0,0,0,,,0
1450009076685651136,904,1450009076685408054,/world,trajectory,917,1,0,0.00129208285485,0.057308144275,-0.00527655345709,0.0,0.0,0.0,0.0,0.006,0.006,0.006,0.0,0.0,0.5,1.0,0,0,,,0
1450009076832765790,905,1450009076832286744,/world,trajectory,918,1,0,0.001235738387,0.0575862223755,-0.0053461926197,0.0,0.0,0.0,0.0,0.006,0.006,0.006,0.0,0.0,0.5,1.0,0,0,,,0
1450009077021033684,906,1450009077020796761,/world,trajectory,919,1,0,0.00125104866858,0.0576525777141,-0.00539909563472,0.0,0.0,0.0,0.0,0.006,0.006,0.006,0.0,0.0,0.5,1.0,0,0,,,0
1450009077210793154,907,1450009077210342622,/world,trajectory,920,1,0,0.00128587041343,0.0577805677508,-0.00538879894716,0.0,0.0,0.0,0.0,0.006,0.006,0.006,0.0,0.0,0.5,1.0,0,0,,,0
1450009077377353611,908,1450009077376804232,/world,trajectory,921,1,0,0.00135771828323,0.057830741372,-0.0054346811859,0.0,0.0,0.0,0.0,0.006,0.006,0.006,0.0,0.0,0.5,1.0,0,0,,,0
1450009077576498326,909,1450009077576210855,/world,trajectory,922,1,0,0.0014888238853,0.0579216794363,-0.00531782679799,0.0,0.0,0.0,0.0,0.006,0.006,0.006,0.0,0.0,0.5,1.0,0,0,,,0
1450009077849908152,910,1450009077849445435,/world,trajectory,923,1,0,0.0015227015305,0.0579368043179,-0.00553271976151,0.0,0.0,0.0,0.0,0.006,0.006,0.006,0.0,0.0,0.5,1.0,0,0,,,0
1450009078041440360,911,1450009078041353236,/world,trajectory,924,1,0,0.00161188011687,0.0580370307905,-0.0054197835432,0.0,0.0,0.0,0.0,0.006,0.006,0.006,0.0,0.0,0.5,1.0,0,0,,,0
1450009078176237477,912,1450009078175281980,/world,trajectory,925,1,0,0.00168100987545,0.0581265358714,-0.00535563868679,0.0,0.0,0.0,0.0,0.006,0.006,0.006,0.0,0.0,0.5,1.0,0,0,,,0
1450009078353512186,913,1450009078353376116,/world,trajectory,926,1,0,0.00153228062166,0.0582974206199,-0.00560422602492,0.0,0.0,0.0,0.0,0.006,0.006,0.006,0.0,0.0,0.5,1.0,0,0,,,0
1450009078536403065,914,1450009078536319149,/world,trajectory,927,1,0,0.00137588064199,0.058636603874,-0.00541658824015,0.0,0.0,0.0,0.0,0.006,0.006,0.006,0.0,0.0,0.5,1.0,0,0,,,0
1450009078679792528,915,1450009078679460249,/world,trajectory,928,1,0,0.00147380165994,0.0586046731411,-0.00582803689733,0.0,0.0,0.0,0.0,0.006,0.006,0.006,0.0,0.0,0.5,1.0,0,0,,,0
1450009078850654381,916,1450009078850575521,/world,trajectory,929,1,0,0.00132475979636,0.0587821213109,-0.00569583954653,0.0,0.0,0.0,0.0,0.006,0.006,0.006,0.0,0.0,0.5,1.0,0,0,,,0
1450009078997151983,917,1450009078997042942,/world,trajectory,930,1,0,0.00137901203993,0.0588252169632,-0.00575493959501,0.0,0.0,0.0,0.0,0.006,0.006,0.006,0.0,0.0,0.5,1.0,0,0,,,0
1450009079193208395,918,1450009079191423844,/world,trajectory,931,1,0,0.00132581704919,0.0588368723861,-0.00573996186219,0.0,0.0,0.0,0.0,0.006,0.006,0.006,0.0,0.0,0.5,1.0,0,0,,,0
1450009079332920092,919,1450009079332559009,/world,trajectory,932,1,0,0.00135336848454,0.0589494472057,-0.0056777364692,0.0,0.0,0.0,0.0,0.006,0.006,0.006,0.0,0.0,0.5,1.0,0,0,,,0
1450009079489472619,920,1450009079489239629,/world,trajectory,933,1,0,0.00141677468942,0.058988542395,-0.00586201658497,0.0,0.0,0.0,0.0,0.006,0.006,0.006,0.0,0.0,0.5,1.0,0,0,,,0
1450009079614087496,921,1450009079613905615,/world,trajectory,934,1,0,0.00133039645001,0.0591672763756,-0.00556918306708,0.0,0.0,0.0,0.0,0.006,0.006,0.006,0.0,0.0,0.5,1.0,0,0,,,0
1450009079766407997,922,1450009079766289936,/world,trajectory,935,1,0,0.00137666049,0.0591878449931,-0.0055921101,0.0,0.0,0.0,0.0,0.006,0.006,0.006,0.0,0.0,0.5,1.0,0,0,,,0
1450009079842389081,923,1450009079842246354,/world,trajectory,936,1,0,0.00140814499605,0.0591108957088,-0.00541479265074,0.0,0.0,0.0,0.0,0.006,0.006,0.006,0.0,0.0,0.5,1.0,0,0,,,0
1450009080011182873,924,1450009080011092379,/world,trajectory,937,1,0,0.00147983593372,0.0593213691892,-0.00545630443202,0.0,0.0,0.0,0.0,0.006,0.006,0.006,0.0,0.0,0.5,1.0,0,0,,,0
1450009080161894274,925,1450009080158721432,/world,trajectory,938,1,0,0.00149104425264,0.0595238443189,-0.00557622190644,0.0,0.0,0.0,0.0,0.006,0.006,0.006,0.0,0.0,0.5,1.0,0,0,,,0
1450009080277991219,926,1450009080277435725,/world,trajectory,939,1,0,0.00161359105481,0.0595641894991,-0.00574718845771,0.0,0.0,0.0,0.0,0.006,0.006,0.006,0.0,0.0,0.5,1.0,0,0,,,0
1450009080415059065,927,1450009080414962353,/world,trajectory,940,1,0,0.00158573029805,0.0599300614427,-0.00549545881863,0.0,0.0,0.0,0.0,0.006,0.006,0.006,0.0,0.0,0.5,1.0,0,0,,,0
1450009080519353836,928,1450009080518475772,/world,trajectory,941,1,0,0.00157207623683,0.0600804137115,-0.00559139613188,0.0,0.0,0.0,0.0,0.006,0.006,0.006,0.0,0.0,0.5,1.0,0,0,,,0
1450009080630510478,929,1450009080630064364,/world,trajectory,942,1,0,0.00150462503058,0.0602568645637,-0.00543845868776,0.0,0.0,0.0,0.0,0.006,0.006,0.006,0.0,0.0,0.5,1.0,0,0,,,0
1450009080833665840,930,1450009080833220545,/world,trajectory,943,1,0,0.00149088260197,0.0605417585115,-0.00579006957129,0.0,0.0,0.0,0.0,0.006,0.006,0.006,0.0,0.0,0.5,1.0,0,0,,,0
1450009080972551658,931,1450009080972165190,/world,trajectory,944,1,0,0.00135775915908,0.0606547661661,-0.00547417270098,0.0,0.0,0.0,0.0,0.006,0.006,0.006,0.0,0.0,0.5,1.0,0,0,,,0
1450009081078242403,932,1450009081077948369,/world,trajectory,945,1,0,0.00136230633456,0.0607226902982,-0.00560218873073,0.0,0.0,0.0,0.0,0.006,0.006,0.006,0.0,0.0,0.5,1.0,0,0,,,0
1450009081218421691,933,1450009081217795312,/world,trajectory,946,1,0,0.00138873286146,0.0608413952466,-0.00561410066403,0.0,0.0,0.0,0.0,0.006,0.006,0.006,0.0,0.0,0.5,1.0,0,0,,,0
1450009081410217625,934,1450009081409705473,/world,trajectory,947,1,0,0.00135992527646,0.0610589758956,-0.0055455325976,0.0,0.0,0.0,0.0,0.006,0.006,0.006,0.0,0.0,0.5,1.0,0,0,,,0
1450009081668007098,935,1450009081667840280,/world,trajectory,948,1,0,0.00142771501858,0.0611232130756,-0.00554512237468,0.0,0.0,0.0,0.0,0.006,0.006,0.006,0.0,0.0,0.5,1.0,0,0,,,0
1450009081756463744,936,1450009081756376050,/world,trajectory,949,1,0,0.00150617376582,0.0610303242449,-0.00589541514957,0.0,0.0,0.0,0.0,0.006,0.006,0.006,0.0,0.0,0.5,1.0,0,0,,,0
1450009081860716664,937,1450009081860389323,/world,trajectory,950,1,0,0.00141987668311,0.061111369383,-0.00546731624056,0.0,0.0,0.0,0.0,0.006,0.006,0.006,0.0,0.0,0.5,1.0,0,0,,,0
1450009081954860581,938,1450009081954136650,/world,trajectory,951,1,0,0.00149446320559,0.0611119598686,-0.00601806205811,0.0,0.0,0.0,0.0,0.006,0.006,0.006,0.0,0.0,0.5,1.0,0,0,,,0
1450009082046559129,939,1450009082046330195,/world,trajectory,952,1,0,0.00141663472615,0.0611740692107,-0.00570401402837,0.0,0.0,0.0,0.0,0.006,0.006,0.006,0.0,0.0,0.5,1.0,0,0,,,0
1450009082145726834,940,1450009082135383691,/world,trajectory,953,1,0,0.00140746919816,0.0611734906865,-0.00566857749871,0.0,0.0,0.0,0.0,0.006,0.006,0.006,0.0,0.0,0.5,1.0,0,0,,,0
1450009082241876591,941,1450009082241125845,/world,trajectory,954,1,0,0.00144746485453,0.0611383510053,-0.00585456380064,0.0,0.0,0.0,0.0,0.006,0.006,0.006,0.0,0.0,0.5,1.0,0,0,,,0
1450009082349857834,942,1450009082349019727,/world,trajectory,955,1,0,0.00140506843717,0.0612115832758,-0.00583048924926,0.0,0.0,0.0,0.0,0.006,0.006,0.006,0.0,0.0,0.5,1.0,0,0,,,0
1450009083032627804,943,1450009083032343022,/world,trajectory,956,1,0,0.00138600474016,0.061418765045,-0.00568060483434,0.0,0.0,0.0,0.0,0.006,0.006,0.006,0.0,0.0,0.5,1.0,0,0,,,0
1450009083138970357,944,1450009083133902853,/world,trajectory,957,1,0,0.00128419890071,0.0614720431932,-0.00555029845851,0.0,0.0,0.0,0.0,0.006,0.006,0.006,0.0,0.0,0.5,1.0,0,0,,,0
1450009083247201277,945,1450009083246773652,/world,trajectory,958,1,0,0.00129215943961,0.0613846510275,-0.00558288412674,0.0,0.0,0.0,0.0,0.006,0.006,0.006,0.0,0.0,0.5,1.0,0,0,,,0
1450009083386634456,946,1450009083381951338,/world,trajectory,959,1,0,0.00132102675698,0.0614563660434,-0.00547484065517,0.0,0.0,0.0,0.0,0.006,0.006,0.006,0.0,0.0,0.5,1.0,0,0,,,0
1450009083951518986,947,1450009083949217928,/world,trajectory,960,1,0,0.00129926380341,0.0614370288027,-0.00571022549749,0.0,0.0,0.0,0.0,0.006,0.006,0.006,0.0,0.0,0.5,1.0,0,0,,,0
1450009084045557226,948,1450009084043656340,/world,trajectory,961,1,0,0.00138113531731,0.0614776966968,-0.00576276521544,0.0,0.0,0.0,0.0,0.006,0.006,0.006,0.0,0.0,0.5,1.0,0,0,,,0
1450009084132571944,949,1450009084132036302,/world,trajectory,962,1,0,0.00144520359834,0.0615474056541,-0.00580036158274,0.0,0.0,0.0,0.0,0.006,0.006,0.006,0.0,0.0,0.5,1.0,0,0,,,0
1450009084230447521,950,1450009084230216579,/world,trajectory,963,1,0,0.00152027901991,0.0615951117262,-0.00572381011342,0.0,0.0,0.0,0.0,0.006,0.006,0.006,0.0,0.0,0.5,1.0,0,0,,,0
1450009084318639398,951,1450009084316711602,/world,trajectory,964,1,0,0.00156646313159,0.0616235210663,-0.00581963325547,0.0,0.0,0.0,0.0,0.006,0.006,0.006,0.0,0.0,0.5,1.0,0,0,,,0
1450009084411454012,952,1450009084411358614,/world,trajectory,965,1,0,0.0015182508039,0.0618045608236,-0.00580575915161,0.0,0.0,0.0,0.0,0.006,0.006,0.006,0.0,0.0,0.5,1.0,0,0,,,0
1450009084500767655,953,1450009084500116464,/world,trajectory,966,1,0,0.00147117062862,0.0619159099733,-0.0057274167276,0.0,0.0,0.0,0.0,0.006,0.006,0.006,0.0,0.0,0.5,1.0,0,0,,,0
1450009084589156647,954,1450009084588803713,/world,trajectory,967,1,0,0.00150298383239,0.0620234505172,-0.00578224029734,0.0,0.0,0.0,0.0,0.006,0.006,0.006,0.0,0.0,0.5,1.0,0,0,,,0
1450009084681210387,955,1450009084679656954,/world,trajectory,968,1,0,0.00155694143291,0.0622258158078,-0.00579808911894,0.0,0.0,0.0,0.0,0.006,0.006,0.006,0.0,0.0,0.5,1.0,0,0,,,0
1450009084757802839,956,1450009084757040524,/world,trajectory,969,1,0,0.00155667879408,0.0620251495654,-0.00577802046621,0.0,0.0,0.0,0.0,0.006,0.006,0.006,0.0,0.0,0.5,1.0,0,0,,,0
1450009084848713515,957,1450009084842814949,/world,trajectory,970,1,0,0.00164818196749,0.0621805506682,-0.00579544417632,0.0,0.0,0.0,0.0,0.006,0.006,0.006,0.0,0.0,0.5,1.0,0,0,,,0
1450009084936414138,958,1450009084934199124,/world,trajectory,971,1,0,0.00170105359204,0.0622133154818,-0.00581642556155,0.0,0.0,0.0,0.0,0.006,0.006,0.006,0.0,0.0,0.5,1.0,0,0,,,0
1450009085032162234,959,1450009085031512281,/world,trajectory,972,1,0,0.00161758385326,0.0623422844437,-0.00578682693296,0.0,0.0,0.0,0.0,0.006,0.006,0.006,0.0,0.0,0.5,1.0,0,0,,,0
1450009085126888729,960,1450009085125713952,/world,trajectory,973,1,0,0.00147450972388,0.0625063370108,-0.00586478827821,0.0,0.0,0.0,0.0,0.006,0.006,0.006,0.0,0.0,0.5,1.0,0,0,,,0
1450009085220531017,961,1450009085220441158,/world,trajectory,974,1,0,0.00149637621528,0.0626275033111,-0.00591131834408,0.0,0.0,0.0,0.0,0.006,0.006,0.006,0.0,0.0,0.5,1.0,0,0,,,0
1450009085321955407,962,1450009085316882991,/world,trajectory,975,1,0,0.00140332087077,0.0628540990045,-0.00561562303723,0.0,0.0,0.0,0.0,0.006,0.006,0.006,0.0,0.0,0.5,1.0,0,0,,,0
1450009085421425741,963,1450009085420568731,/world,trajectory,976,1,0,0.00132088631795,0.0627395672929,-0.00564480598212,0.0,0.0,0.0,0.0,0.006,0.006,0.006,0.0,0.0,0.5,1.0,0,0,,,0
1450009085525279568,964,1450009085525143722,/world,trajectory,977,1,0,0.0012584540138,0.0627944195111,-0.00538022602512,0.0,0.0,0.0,0.0,0.006,0.006,0.006,0.0,0.0,0.5,1.0,0,0,,,0
1450009085614252047,965,1450009085610848791,/world,trajectory,978,1,0,0.0013665485894,0.0627032525594,-0.00575641643583,0.0,0.0,0.0,0.0,0.006,0.006,0.006,0.0,0.0,0.5,1.0,0,0,,,0
1450009085693450418,966,1450009085693287732,/world,trajectory,979,1,0,0.00138494743342,0.0627806857521,-0.00576766013187,0.0,0.0,0.0,0.0,0.006,0.006,0.006,0.0,0.0,0.5,1.0,0,0,,,0
1450009085774217821,967,1450009085773105787,/world,trajectory,980,1,0,0.00146523710017,0.0628911297483,-0.00571292472963,0.0,0.0,0.0,0.0,0.006,0.006,0.006,0.0,0.0,0.5,1.0,0,0,,,0
1450009085862811906,968,1450009085862128829,/world,trajectory,981,1,0,0.00148936641974,0.0629213754565,-0.00581119510011,0.0,0.0,0.0,0.0,0.006,0.006,0.006,0.0,0.0,0.5,1.0,0,0,,,0
1450009085951072363,969,1450009085945819723,/world,trajectory,982,1,0,0.00143748671598,0.0629428931626,-0.00569331211849,0.0,0.0,0.0,0.0,0.006,0.006,0.006,0.0,0.0,0.5,1.0,0,0,,,0
1450009086033276908,970,1450009086033103017,/world,trajectory,983,1,0,0.00139857726343,0.0630471545896,-0.0056232364073,0.0,0.0,0.0,0.0,0.006,0.006,0.006,0.0,0.0,0.5,1.0,0,0,,,0
1450009086175037432,971,1450009086174570826,/world,trajectory,984,1,0,0.00144274493944,0.063272745254,-0.00581985707215,0.0,0.0,0.0,0.0,0.006,0.006,0.006,0.0,0.0,0.5,1.0,0,0,,,0
1450009086273283671,972,1450009086272847457,/world,trajectory,985,1,0,0.00146811704598,0.0632268444772,-0.0058017396737,0.0,0.0,0.0,0.0,0.006,0.006,0.006,0.0,0.0,0.5,1.0,0,0,,,0
1450009086400336731,973,1450009086399453742,/world,trajectory,986,1,0,0.00143251992601,0.0633797382627,-0.00582738736727,0.0,0.0,0.0,0.0,0.006,0.006,0.006,0.0,0.0,0.5,1.0,0,0,,,0
1450009086490457705,974,1450009086490173156,/world,trajectory,987,1,0,0.00155234706859,0.0634441952049,-0.00591166129685,0.0,0.0,0.0,0.0,0.006,0.006,0.006,0.0,0.0,0.5,1.0,0,0,,,0
1450009086662315023,975,1450009086660293540,/world,trajectory,988,1,0,0.00154460085336,0.0635766678726,-0.00583185593716,0.0,0.0,0.0,0.0,0.006,0.006,0.006,0.0,0.0,0.5,1.0,0,0,,,0
1450009086774894154,976,1450009086770811633,/world,trajectory,989,1,0,0.00158106371464,0.0637913506662,-0.00597977796855,0.0,0.0,0.0,0.0,0.006,0.006,0.006,0.0,0.0,0.5,1.0,0,0,,,0
1450009086868573809,977,1450009086868500434,/world,trajectory,990,1,0,0.00153225793305,0.0638221463418,-0.00572874745494,0.0,0.0,0.0,0.0,0.006,0.006,0.006,0.0,0.0,0.5,1.0,0,0,,,0
1450009086991801452,978,1450009086991552987,/world,trajectory,991,1,0,0.00140357788161,0.0638939729177,-0.00559423830064,0.0,0.0,0.0,0.0,0.006,0.006,0.006,0.0,0.0,0.5,1.0,0,0,,,0
1450009087107777875,979,1450009087107364302,/world,trajectory,992,1,0,0.00136806353931,0.0638953137669,-0.00548412678989,0.0,0.0,0.0,0.0,0.006,0.006,0.006,0.0,0.0,0.5,1.0,0,0,,,0
1450009087221529150,980,1450009087220066975,/world,trajectory,993,1,0,0.00145191643369,0.0639200021811,-0.00592884986907,0.0,0.0,0.0,0.0,0.006,0.006,0.006,0.0,0.0,0.5,1.0,0,0,,,0
1450009087327287993,981,1450009087322464680,/world,trajectory,994,1,0,0.0013540379881,0.0639986281851,-0.00598580626602,0.0,0.0,0.0,0.0,0.006,0.006,0.006,0.0,0.0,0.5,1.0,0,0,,,0
1450009087429351100,982,1450009087429044142,/world,trajectory,995,1,0,0.00140558662141,0.0641567736585,-0.00597529092384,0.0,0.0,0.0,0.0,0.006,0.006,0.006,0.0,0.0,0.5,1.0,0,0,,,0
1450009087550070197,983,1450009087549963463,/world,trajectory,996,1,0,0.00139613100965,0.0645043776886,-0.00592405723802,0.0,0.0,0.0,0.0,0.006,0.006,0.006,0.0,0.0,0.5,1.0,0,0,,,0
1450009087654048684,984,1450009087653967459,/world,trajectory,997,1,0,0.00138409298235,0.0645623821952,-0.00583120184948,0.0,0.0,0.0,0.0,0.006,0.006,0.006,0.0,0.0,0.5,1.0,0,0,,,0
1450009087751951523,985,1450009087751403486,/world,trajectory,998,1,0,0.00137561415733,0.0646030955388,-0.00581787430282,0.0,0.0,0.0,0.0,0.006,0.006,0.006,0.0,0.0,0.5,1.0,0,0,,,0
1450009087874018622,986,1450009087873566461,/world,trajectory,999,1,0,0.00131499883362,0.0647574022942,-0.00585450466015,0.0,0.0,0.0,0.0,0.006,0.006,0.006,0.0,0.0,0.5,1.0,0,0,,,0
1450009087953319569,987,1450009087951368578,/world,trajectory,1000,1,0,0.00125352118254,0.0648928554228,-0.00562655262007,0.0,0.0,0.0,0.0,0.006,0.006,0.006,0.0,0.0,0.5,1.0,0,0,,,0
1450009088128032637,988,1450009088127679447,/world,trajectory,1001,1,0,0.00132292229596,0.0646735068345,-0.00592979529746,0.0,0.0,0.0,0.0,0.006,0.006,0.006,0.0,0.0,0.5,1.0,0,0,,,0
1450009088227720434,989,1450009088226579537,/world,trajectory,1002,1,0,0.00137247249064,0.064791383863,-0.00615125381019,0.0,0.0,0.0,0.0,0.006,0.006,0.006,0.0,0.0,0.5,1.0,0,0,,,0
1450009088326719198,990,1450009088326623253,/world,trajectory,1003,1,0,0.00130525837206,0.0649872566825,-0.00601251282868,0.0,0.0,0.0,0.0,0.006,0.006,0.006,0.0,0.0,0.5,1.0,0,0,,,0
1450009088443173286,991,1450009088442788527,/world,trajectory,1004,1,0,0.00143855608638,0.0649701072306,-0.00595804935409,0.0,0.0,0.0,0.0,0.006,0.006,0.006,0.0,0.0,0.5,1.0,0,0,,,0
1450009088537062708,992,1450009088536427163,/world,trajectory,1005,1,0,0.00140974388254,0.0651617046759,-0.00599863700882,0.0,0.0,0.0,0.0,0.006,0.006,0.006,0.0,0.0,0.5,1.0,0,0,,,0
1450009088664893513,993,1450009088664520788,/world,trajectory,1006,1,0,0.00137848387509,0.0653901105625,-0.00600839139711,0.0,0.0,0.0,0.0,0.006,0.006,0.006,0.0,0.0,0.5,1.0,0,0,,,0
1450009088801796076,994,1450009088801719750,/world,trajectory,1007,1,0,0.00128512593581,0.0654976676569,-0.0059689717981,0.0,0.0,0.0,0.0,0.006,0.006,0.006,0.0,0.0,0.5,1.0,0,0,,,0
1450009088933768360,995,1450009088933665651,/world,trajectory,1008,1,0,0.00126363751152,0.065713333104,-0.00600403036841,0.0,0.0,0.0,0.0,0.006,0.006,0.006,0.0,0.0,0.5,1.0,0,0,,,0
1450009089081980451,996,1450009089081590891,/world,trajectory,1009,1,0,0.00132148243981,0.0657920805495,-0.00616725333029,0.0,0.0,0.0,0.0,0.006,0.006,0.006,0.0,0.0,0.5,1.0,0,0,,,0
1450009089222040558,997,1450009089221710500,/world,trajectory,1010,1,0,0.00133376895524,0.0658373034586,-0.00619891030512,0.0,0.0,0.0,0.0,0.006,0.006,0.006,0.0,0.0,0.5,1.0,0,0,,,0
1450009089324813824,998,1450009089324295538,/world,trajectory,1011,1,0,0.0014071404998,0.0659483569274,-0.00622972033603,0.0,0.0,0.0,0.0,0.006,0.006,0.006,0.0,0.0,0.5,1.0,0,0,,,0
1450009089476786171,999,1450009089476540635,/world,trajectory,1012,1,0,0.00150758679624,0.0659798128137,-0.00625578990585,0.0,0.0,0.0,0.0,0.006,0.006,0.006,0.0,0.0,0.5,1.0,0,0,,,0
1450009089611253076,1000,1450009089611104327,/world,trajectory,1013,1,0,0.00151282526344,0.0660211701024,-0.00618776665873,0.0,0.0,0.0,0.0,0.006,0.006,0.006,0.0,0.0,0.5,1.0,0,0,,,0
1450009089769709543,1001,1450009089769219304,/world,trajectory,1014,1,0,0.00156901071559,0.0660147872054,-0.00618421129501,0.0,0.0,0.0,0.0,0.006,0.006,0.006,0.0,0.0,0.5,1.0,0,0,,,0
1450009089886780356,1002,1450009089886699522,/world,trajectory,1015,1,0,0.00148167610497,0.0660905679378,-0.00625477750729,0.0,0.0,0.0,0.0,0.006,0.006,0.006,0.0,0.0,0.5,1.0,0,0,,,0
1450009090002784118,1003,1450009090002503149,/world,trajectory,1016,1,0,0.00157501519176,0.0661999323738,-0.00633849044715,0.0,0.0,0.0,0.0,0.006,0.006,0.006,0.0,0.0,0.5,1.0,0,0,,,0
1450009090144873930,1004,1450009090144655154,/world,trajectory,1017,1,0,0.00156560611066,0.0664761415611,-0.00631195400961,0.0,0.0,0.0,0.0,0.006,0.006,0.006,0.0,0.0,0.5,1.0,0,0,,,0
1450009090352099587,1005,1450009090351493233,/world,trajectory,1018,1,0,0.00138367339596,0.0666028319723,-0.00607316726314,0.0,0.0,0.0,0.0,0.006,0.006,0.006,0.0,0.0,0.5,1.0,0,0,,,0
1450009090467065958,1006,1450009090466239412,/world,trajectory,1019,1,0,0.00142573951643,0.0668648356287,-0.00612541335145,0.0,0.0,0.0,0.0,0.006,0.006,0.006,0.0,0.0,0.5,1.0,0,0,,,0
1450009090623572949,1007,1450009090623419448,/world,trajectory,1020,1,0,0.00151490438002,0.0670159631192,-0.00630946013412,0.0,0.0,0.0,0.0,0.006,0.006,0.006,0.0,0.0,0.5,1.0,0,0,,,0
1450009091452817761,1008,1450009091452659978,/world,trajectory,1021,1,0,0.00152081002104,0.0671269154141,-0.00611250815833,0.0,0.0,0.0,0.0,0.006,0.006,0.006,0.0,0.0,0.5,1.0,0,0,,,0
1450009091914274857,1009,1450009091913811722,/world,trajectory,1022,1,0,0.00147732714795,0.0672162681816,-0.00618671275072,0.0,0.0,0.0,0.0,0.006,0.006,0.006,0.0,0.0,0.5,1.0,0,0,,,0
1450009092013968102,1010,1450009092013782914,/world,trajectory,1023,1,0,0.0014441707818,0.067667902393,-0.0061860361022,0.0,0.0,0.0,0.0,0.006,0.006,0.006,0.0,0.0,0.5,1.0,0,0,,,0
1450009092102542730,1011,1450009092102270235,/world,trajectory,1024,1,0,0.00132000640155,0.068040032023,-0.00603434568125,0.0,0.0,0.0,0.0,0.006,0.006,0.006,0.0,0.0,0.5,1.0,0,0,,,0
1450009092607852662,1012,1450009092607242001,/world,trajectory,1025,1,0,0.00148102733541,0.0681110424775,-0.0062866690068,0.0,0.0,0.0,0.0,0.006,0.006,0.006,0.0,0.0,0.5,1.0,0,0,,,0
1450009092696267207,1013,1450009092695006431,/world,trajectory,1026,1,0,0.00151385962526,0.0681478052355,-0.00629034244679,0.0,0.0,0.0,0.0,0.006,0.006,0.006,0.0,0.0,0.5,1.0,0,0,,,0
1450009092786216555,1014,1450009092785867265,/world,trajectory,1027,1,0,0.00156111323855,0.0686062364642,-0.00631662999641,0.0,0.0,0.0,0.0,0.006,0.006,0.006,0.0,0.0,0.5,1.0,0,0,,,0
1450009092849138857,1015,1450009092848923730,/world,trajectory,1028,1,0,0.00155343329545,0.0688292428614,-0.00637409482819,0.0,0.0,0.0,0.0,0.006,0.006,0.006,0.0,0.0,0.5,1.0,0,0,,,0
1450009093021510113,1016,1450009093016425296,/world,trajectory,1029,1,0,0.00149149159926,0.0690562306121,-0.00616068366668,0.0,0.0,0.0,0.0,0.006,0.006,0.006,0.0,0.0,0.5,1.0,0,0,,,0
1450009093146114620,1017,1450009093146042975,/world,trajectory,1030,1,0,0.00147449509961,0.0693990296167,-0.00621252696732,0.0,0.0,0.0,0.0,0.006,0.006,0.006,0.0,0.0,0.5,1.0,0,0,,,0
1450009093430909859,1018,1450009093430536868,/world,trajectory,1031,1,0,0.00147967475456,0.0694586059764,-0.00620137717883,0.0,0.0,0.0,0.0,0.006,0.006,0.006,0.0,0.0,0.5,1.0,0,0,,,0
1450009093591542541,1019,1450009093591265420,/world,trajectory,1032,1,0,0.00149135595161,0.0694768000071,-0.00618758922442,0.0,0.0,0.0,0.0,0.006,0.006,0.006,0.0,0.0,0.5,1.0,0,0,,,0
1450009093657961826,1020,1450009093657621623,/world,trajectory,1033,1,0,0.00157227817788,0.0695429656032,-0.00623526159467,0.0,0.0,0.0,0.0,0.006,0.006,0.006,0.0,0.0,0.5,1.0,0,0,,,0
1450009093953933152,1021,1450009093952379625,/world,trajectory,1034,1,0,0.00158427154513,0.069749876843,-0.0062573308732,0.0,0.0,0.0,0.0,0.006,0.006,0.006,0.0,0.0,0.5,1.0,0,0,,,0
1450009094104171652,1022,1450009094103844973,/world,trajectory,1035,1,0,0.00145641631713,0.0699174421242,-0.00612484543595,0.0,0.0,0.0,0.0,0.006,0.006,0.006,0.0,0.0,0.5,1.0,0,0,,,0
1450009094195348784,1023,1450009094195056306,/world,trajectory,1036,1,0,0.00145245642749,0.070136221824,-0.00620997823383,0.0,0.0,0.0,0.0,0.006,0.006,0.006,0.0,0.0,0.5,1.0,0,0,,,0
1450009094315853031,1024,1450009094315278491,/world,trajectory,1037,1,0,0.00147129555147,0.0703494519349,-0.00614927513423,0.0,0.0,0.0,0.0,0.006,0.006,0.006,0.0,0.0,0.5,1.0,0,0,,,0
1450009094596932170,1025,1450009094596610132,/world,trajectory,1038,1,0,0.00145980652477,0.0704474855794,-0.00615470219456,0.0,0.0,0.0,0.0,0.006,0.006,0.006,0.0,0.0,0.5,1.0,0,0,,,0
1450009094722446512,1026,1450009094722342331,/world,trajectory,1039,1,0,0.00148767234148,0.0706276700453,-0.00623353358399,0.0,0.0,0.0,0.0,0.006,0.006,0.006,0.0,0.0,0.5,1.0,0,0,,,0
1450009094905777386,1027,1450009094905658301,/world,trajectory,1040,1,0,0.00150193435856,0.0707393627475,-0.00628720393169,0.0,0.0,0.0,0.0,0.006,0.006,0.006,0.0,0.0,0.5,1.0,0,0,,,0
1450009095659278543,1028,1450009095659080808,/world,trajectory,1041,1,0,0.00139349825634,0.0707117470213,-0.00615313831537,0.0,0.0,0.0,0.0,0.006,0.006,0.006,0.0,0.0,0.5,1.0,0,0,,,0
1450009095950453776,1029,1450009095930689769,/world,trajectory,1042,1,0,0.00146994037122,0.0707772593919,-0.00617000145428,0.0,0.0,0.0,0.0,0.006,0.006,0.006,0.0,0.0,0.5,1.0,0,0,,,0
1450009096241658494,1030,1450009096241238979,/world,trajectory,1043,1,0,0.00155275443189,0.0707829151538,-0.00636697792153,0.0,0.0,0.0,0.0,0.006,0.006,0.006,0.0,0.0,0.5,1.0,0,0,,,0
1450009096469470936,1031,1450009096469109002,/world,trajectory,1044,1,0,0.00165167644929,0.0707632253879,-0.00635714580802,0.0,0.0,0.0,0.0,0.006,0.006,0.006,0.0,0.0,0.5,1.0,0,0,,,0
1450009096817063433,1032,1450009096816758227,/world,trajectory,1045,1,0,0.00149717451763,0.0708054872861,-0.00611184204378,0.0,0.0,0.0,0.0,0.006,0.006,0.006,0.0,0.0,0.5,1.0,0,0,,,0
1450009097081258363,1033,1450009097081089606,/world,trajectory,1046,1,0,0.0015622498406,0.0708555910776,-0.00629400012994,0.0,0.0,0.0,0.0,0.006,0.006,0.006,0.0,0.0,0.5,1.0,0,0,,,0
1450009097302033787,1034,1450009097301713200,/world,trajectory,1047,1,0,0.00164644815204,0.0711057842539,-0.006619419877,0.0,0.0,0.0,0.0,0.006,0.006,0.006,0.0,0.0,0.5,1.0,0,0,,,0
1450009097661899616,1035,1450009097661547886,/world,trajectory,1048,1,0,0.00153700553372,0.0710154662788,-0.0065916408465,0.0,0.0,0.0,0.0,0.006,0.006,0.006,0.0,0.0,0.5,1.0,0,0,,,0
1450009097881200646,1036,1450009097880734934,/world,trajectory,1049,1,0,0.00146592632456,0.0713313649923,-0.00643350879662,0.0,0.0,0.0,0.0,0.006,0.006,0.006,0.0,0.0,0.5,1.0,0,0,,,0
1450009098771088689,1037,1450009098770133011,/world,trajectory,1050,1,0,0.00148393224626,0.0714772095765,-0.00641246225719,0.0,0.0,0.0,0.0,0.006,0.006,0.006,0.0,0.0,0.5,1.0,0,0,,,0
1450009098829233437,1038,1450009098828181632,/world,trajectory,1051,1,0,0.00142033098283,0.0714499528127,-0.00621377484778,0.0,0.0,0.0,0.0,0.006,0.006,0.006,0.0,0.0,0.5,1.0,0,0,,,0
1450009098996938309,1039,1450009098996025456,/world,trajectory,1052,1,0,0.00134039291556,0.071756994521,-0.00568215470917,0.0,0.0,0.0,0.0,0.006,0.006,0.006,0.0,0.0,0.5,1.0,0,0,,,0
1450009099108067345,1040,1450009099107842717,/world,trajectory,1053,1,0,0.00145356203575,0.0718075632809,-0.00616337153856,0.0,0.0,0.0,0.0,0.006,0.006,0.006,0.0,0.0,0.5,1.0,0,0,,,0
1450009099358598631,1041,1450009099358502282,/world,trajectory,1054,1,0,0.00144368595716,0.0719714443975,-0.00622851778181,0.0,0.0,0.0,0.0,0.006,0.006,0.006,0.0,0.0,0.5,1.0,0,0,,,0
1450009099617578503,1042,1450009099617178540,/world,trajectory,1055,1,0,0.00143210471198,0.0722176019916,-0.00612130473904,0.0,0.0,0.0,0.0,0.006,0.006,0.006,0.0,0.0,0.5,1.0,0,0,,,0
1450009099936104007,1043,1450009099936029839,/world,trajectory,1056,1,0,0.00152684920132,0.0721142219946,-0.00651504934075,0.0,0.0,0.0,0.0,0.006,0.006,0.006,0.0,0.0,0.5,1.0,0,0,,,0
1450009100168511204,1044,1450009100168429146,/world,trajectory,1057,1,0,0.00141947307627,0.0722712736808,-0.00648095414571,0.0,0.0,0.0,0.0,0.006,0.006,0.006,0.0,0.0,0.5,1.0,0,0,,,0
1450009100422181440,1045,1450009100422091941,/world,trajectory,1058,1,0,0.00144191829459,0.0724899308892,-0.00648285890811,0.0,0.0,0.0,0.0,0.006,0.006,0.006,0.0,0.0,0.5,1.0,0,0,,,0
1450009100627345630,1046,1450009100624128848,/world,trajectory,1059,1,0,0.00147806547414,0.0726071894119,-0.00653877592893,0.0,0.0,0.0,0.0,0.006,0.006,0.006,0.0,0.0,0.5,1.0,0,0,,,0
1450009101140323450,1047,1450009101140234619,/world,trajectory,1060,1,0,0.00148115540051,0.0727362635848,-0.0064532779222,0.0,0.0,0.0,0.0,0.006,0.006,0.006,0.0,0.0,0.5,1.0,0,0,,,0
1450009101752904469,1048,1450009101751777286,/world,trajectory,1061,1,0,0.00139339513541,0.0729869709504,-0.00631546246574,0.0,0.0,0.0,0.0,0.006,0.006,0.006,0.0,0.0,0.5,1.0,0,0,,,0
1450009101958881435,1049,1450009101958715515,/world,trajectory,1062,1,0,0.0014409679737,0.0731686191924,-0.00649128302406,0.0,0.0,0.0,0.0,0.006,0.006,0.006,0.0,0.0,0.5,1.0,0,0,,,0
1450009102211134260,1050,1450009102210542021,/world,trajectory,1063,1,0,0.00147312454718,0.0731905143841,-0.00637035258942,0.0,0.0,0.0,0.0,0.006,0.006,0.006,0.0,0.0,0.5,1.0,0,0,,,0
1450009102410317221,1051,1450009102409992326,/world,trajectory,1064,1,0,0.00157677602543,0.0733608088015,-0.0067341756479,0.0,0.0,0.0,0.0,0.006,0.006,0.006,0.0,0.0,0.5,1.0,0,0,,,0
1450009102595089160,1052,1450009102594957819,/world,trajectory,1065,1,0,0.00143819657734,0.0735576239273,-0.00607924518043,0.0,0.0,0.0,0.0,0.006,0.006,0.006,0.0,0.0,0.5,1.0,0,0,,,0
1450009102868811774,1053,1450009102865485257,/world,trajectory,1066,1,0,0.00136102725702,0.0738814036803,-0.0061834934741,0.0,0.0,0.0,0.0,0.006,0.006,0.006,0.0,0.0,0.5,1.0,0,0,,,0
1450009103156402814,1054,1450009103154784821,/world,trajectory,1067,1,0,0.00134614351332,0.0741295461843,-0.00607977300323,0.0,0.0,0.0,0.0,0.006,0.006,0.006,0.0,0.0,0.5,1.0,0,0,,,0
