%time,field.header.seq,field.header.stamp,field.header.frame_id,field.ns,field.id,field.type,field.action,field.pose.position.x,field.pose.position.y,field.pose.position.z,field.pose.orientation.x,field.pose.orientation.y,field.pose.orientation.z,field.pose.orientation.w,field.scale.x,field.scale.y,field.scale.z,field.color.r,field.color.g,field.color.b,field.color.a,field.lifetime,field.frame_locked,field.text,field.mesh_resource,field.mesh_use_embedded_materials
1450008892044841020,945,1450008891887610051,/camera1,basic_shapes,8,1,0,-0.092134828296,0.0472555438148,0.618822359577,0.00537218290774,0.998731032085,-0.0441546731747,-0.0236184258198,0.044,0.044,0.0088,0.5,0.0,0.5,1.0,1000000000,0,,,0
1450008892148127638,946,1450008891990450673,/camera1,basic_shapes,8,1,0,-0.0920121348684,0.0471699726066,0.61794391595,0.00770250698586,0.997975870927,-0.0560263762202,-0.0290839749976,0.044,0.044,0.0088,0.5,0.0,0.5,1.0,1000000000,0,,,0
1450008892244371616,947,1450008892042086577,/camera1,basic_shapes,8,1,0,-0.0917479696117,0.0469504155335,0.61611802689,0.00600376198003,0.998385553395,-0.045100907608,-0.0340022021033,0.044,0.044,0.0088,0.5,0.0,0.5,1.0,1000000000,0,,,0
1450008892344875883,948,1450008892153843211,/camera1,basic_shapes,8,1,0,-0.0919520216815,0.0471106337597,0.617565344196,0.00343639356297,0.999107787383,-0.0328134109422,-0.0263647577788,0.044,0.044,0.0088,0.5,0.0,0.5,1.0,1000000000,0,,,0
1450008892445068260,949,1450008892361637097,/camera1,basic_shapes,8,1,0,-0.0920470779264,0.0471704083706,0.618133481852,0.00485530467841,0.998582747432,-0.0471503318526,-0.0242026600571,0.044,0.044,0.0088,0.5,0.0,0.5,1.0,1000000000,0,,,0
1450008892542452064,950,1450008892396703248,/camera1,basic_shapes,8,1,0,-0.0919479535171,0.0471072750088,0.61751695619,0.0054460395406,0.998637031135,-0.0433673095468,-0.0285253774942,0.044,0.044,0.0088,0.5,0.0,0.5,1.0,1000000000,0,,,0
1450008892647789187,951,1450008892552898372,/camera1,basic_shapes,8,1,0,-0.0919987126908,0.0471590438417,0.617850540503,0.00767894089435,0.997980307574,-0.0557866081211,-0.0293971752839,0.044,0.044,0.0088,0.5,0.0,0.5,1.0,1000000000,0,,,0
1450008892745114324,952,1450008892602369568,/camera1,basic_shapes,8,1,0,-0.0922347079116,0.0473395622573,0.619509421676,0.00642949363621,0.998445541912,-0.0507617129741,-0.0220999987186,0.044,0.044,0.0088,0.5,0.0,0.5,1.0,1000000000,0,,,0
1450008892845116608,953,1450008892703693564,/camera1,basic_shapes,8,1,0,-0.0920380512303,0.0471783011167,0.618147812523,0.00523586664518,0.998731666826,-0.0427950103874,-0.0260044316551,0.044,0.044,0.0088,0.5,0.0,0.5,1.0,1000000000,0,,,0
1450008892950657330,954,1450008892808802882,/camera1,basic_shapes,8,1,0,-0.092046527341,0.0471911158697,0.618191991752,0.00678138055149,0.998288623921,-0.0512443632417,-0.0273468730319,0.044,0.044,0.0088,0.5,0.0,0.5,1.0,1000000000,0,,,0
1450008893041519694,955,1450008892903258290,/camera1,basic_shapes,8,1,0,-0.0919687843544,0.0471105947767,0.617581177727,0.00540456329953,0.998397640262,-0.0495383104341,-0.0268122810209,0.044,0.044,0.0088,0.5,0.0,0.5,1.0,1000000000,0,,,0
1450008893154377188,956,1450008893052639531,/camera1,basic_shapes,8,1,0,-0.0919131761086,0.0470724084313,0.617183513449,0.00641222053912,0.998064436484,-0.0545342905212,-0.0291937529372,0.044,0.044,0.0088,0.5,0.0,0.5,1.0,1000000000,0,,,0
1450008893246485587,957,1450008893095093459,/camera1,basic_shapes,8,1,0,-0.0920632188963,0.0472046804354,0.618308075059,0.00682181398764,0.998280840509,-0.0515935426934,-0.0269616890937,0.044,0.044,0.0088,0.5,0.0,0.5,1.0,1000000000,0,,,0
1450008893347901288,958,1450008893209718035,/camera1,basic_shapes,8,1,0,-0.0920640766291,0.0471996494225,0.618350349706,0.00325928570066,0.999200277588,-0.0324010927517,-0.0232024031674,0.044,0.044,0.0088,0.5,0.0,0.5,1.0,1000000000,0,,,0
1450008893448833817,959,1450008893363409215,/camera1,basic_shapes,8,1,0,-0.09201318062,0.0471624836913,0.617962950124,0.00639557903525,0.998395988556,-0.0488964714627,-0.0278151340567,0.044,0.044,0.0088,0.5,0.0,0.5,1.0,1000000000,0,,,0
1450008893548873863,960,1450008893457944633,/camera1,basic_shapes,8,1,0,-0.0920993863816,0.0472351493272,0.61855817684,0.00706784963622,0.99821109399,-0.0532364726251,-0.0262780387306,0.044,0.044,0.0088,0.5,0.0,0.5,1.0,1000000000,0,,,0
1450008893643739689,961,1450008893500457882,/camera1,basic_shapes,8,1,0,-0.0918729728055,0.0470519434974,0.61698355298,0.00660092730969,0.99827837402,-0.0490291281957,-0.0315096859946,0.044,0.044,0.0088,0.5,0.0,0.5,1.0,1000000000,0,,,0
1450008893740961123,962,1450008893596433890,/camera1,basic_shapes,8,1,0,-0.0919649780866,0.0471215836304,0.617632888966,0.00574133835812,0.998564874959,-0.0450479344376,-0.0283885740357,0.044,0.044,0.0088,0.5,0.0,0.5,1.0,1000000000,0,,,0
1450008893846872674,963,1450008893754667386,/camera1,basic_shapes,8,1,0,-0.0920179074162,0.0471618802636,0.618009767751,0.00497812587789,0.998789666714,-0.0412908759627,-0.0262580176568,0.044,0.044,0.0088,0.5,0.0,0.5,1.0,1000000000,0,,,0
1450008893941864747,964,1450008893793681068,/camera1,basic_shapes,8,1,0,-0.0919624553655,0.0471370327865,0.617591229492,0.00848303675472,0.997687178088,-0.0598904922157,-0.0310074460151,0.044,0.044,0.0088,0.5,0.0,0.5,1.0,1000000000,0,,,0
1450008894042204523,965,1450008893955028516,/camera1,basic_shapes,8,1,0,-0.0919961169905,0.0471299380369,0.617777637995,0.00485241076027,0.998567249893,-0.046767613513,-0.025547835065,0.044,0.044,0.0088,0.5,0.0,0.5,1.0,1000000000,0,,,0
1450008894165485410,966,1450008893998836766,/camera1,basic_shapes,8,1,0,-0.0920156418766,0.0471597073783,0.617999206675,0.00446144844466,0.998915217513,-0.0385235187562,-0.0257763884596,0.044,0.044,0.0088,0.5,0.0,0.5,1.0,1000000000,0,,,0
1450008894244880339,967,1450008894160943524,/camera1,basic_shapes,8,1,0,-0.0918899016385,0.0470752569395,0.617089033438,0.00807738058797,0.997810608896,-0.0570718641844,-0.0324275656843,0.044,0.044,0.0088,0.5,0.0,0.5,1.0,1000000000,0,,,0
1450008894347468281,968,1450008894201539358,/camera1,basic_shapes,8,1,0,-0.091779136301,0.046985750864,0.616318923614,0.00794248672668,0.997815034172,-0.0554884755154,-0.0349728976586,0.044,0.044,0.0088,0.5,0.0,0.5,1.0,1000000000,0,,,0
1450008894456046426,969,1450008894302863732,/camera1,basic_shapes,8,1,0,-0.0920152435654,0.0471700228997,0.617968383973,0.00738052853345,0.998085454285,-0.0542843355149,-0.0287082681611,0.044,0.044,0.0088,0.5,0.0,0.5,1.0,1000000000,0,,,0
1450008894545269615,970,1450008894397392942,/camera1,basic_shapes,8,1,0,-0.0918750608078,0.0470509316949,0.617003895476,0.00595551977644,0.99846467429,-0.0456199626171,-0.0308487437446,0.044,0.044,0.0088,0.5,0.0,0.5,1.0,1000000000,0,,,0
1450008894643870462,971,1450008894552116992,/camera1,basic_shapes,8,1,0,-0.0919442313826,0.0471045637267,0.617490051969,0.0055440766401,0.998609211462,-0.0438660554452,-0.0287171582262,0.044,0.044,0.0088,0.5,0.0,0.5,1.0,1000000000,0,,,0
1450008894745638392,972,1450008894642672161,/camera1,basic_shapes,8,1,0,-0.0919700178063,0.0472218036214,0.618308148772,0.00912178421638,0.998618535742,-0.0481601975262,-0.0189316797983,0.044,0.044,0.0088,0.5,0.0,0.5,1.0,1000000000,0,,,0
1450008894844255532,973,1450008894687066693,/camera1,basic_shapes,8,1,0,-0.0920864544669,0.0473688003222,0.619600560652,0.00752707482264,0.999028829186,-0.0430525169635,-0.00558769920202,0.044,0.044,0.0088,0.5,0.0,0.5,1.0,1000000000,0,,,0
1450008894953887122,974,1450008894820363761,/camera1,basic_shapes,8,1,0,-0.0908543676204,0.0468518479637,0.614418427669,0.00746644893841,0.995642055106,-0.088168456747,0.0294529027496,0.044,0.044,0.0088,0.5,0.0,0.5,1.0,1000000000,0,,,0
1450008895043306371,975,1450008894861686686,/camera1,basic_shapes,8,1,0,-0.0907126199532,0.0467850632547,0.613454346753,0.00905288782257,0.994519316956,-0.102146542991,0.0203827667033,0.044,0.044,0.0088,0.5,0.0,0.5,1.0,1000000000,0,,,0
1450008895146133976,976,1450008895019512373,/camera1,basic_shapes,8,1,0,-0.090382354544,0.0466435265075,0.611674805841,0.00863058608913,0.992560851866,-0.121434704461,-0.00144252497918,0.044,0.044,0.0088,0.5,0.0,0.5,1.0,1000000000,0,,,0
1450008895244109439,977,1450008895155000640,/camera1,basic_shapes,8,1,0,-0.090929072279,0.0471625306357,0.617996305574,0.00674622679606,0.998265111988,-0.051064730029,-0.028524515062,0.044,0.044,0.0088,0.5,0.0,0.5,1.0,1000000000,0,,,0
1450008895344516631,978,1450008895279665104,/camera1,basic_shapes,8,1,0,-0.0911108886918,0.0473062281037,0.619287920761,0.00611674815828,0.998514168866,-0.0489730152594,-0.0231015960867,0.044,0.044,0.0088,0.5,0.0,0.5,1.0,1000000000,0,,,0
1450008895444587262,979,1450008895308300329,/camera1,basic_shapes,8,1,0,-0.0910096514325,0.0473209012128,0.619234764212,0.00878795515441,0.99875741462,-0.0466157953442,-0.0152763284146,0.044,0.044,0.0088,0.5,0.0,0.5,1.0,1000000000,0,,,0
1450008895544193712,980,1450008895357201714,/camera1,basic_shapes,8,1,0,-0.0907437081656,0.0472463125454,0.618517783336,0.00690393836308,0.999199095363,-0.0394133772248,0.000298591999406,0.044,0.044,0.0088,0.5,0.0,0.5,1.0,1000000000,0,,,0
1450008895643576940,981,1450008895522625979,/camera1,basic_shapes,8,1,0,-0.0893498344263,0.0466257032567,0.612291496759,0.0060720870307,0.993954774349,-0.109587364969,-0.00276509448428,0.044,0.044,0.0088,0.5,0.0,0.5,1.0,1000000000,0,,,0
1450008895744168468,982,1450008895589399615,/camera1,basic_shapes,8,1,0,-0.0894270377678,0.0467693042678,0.613698389133,0.00576584859532,0.994028907685,-0.107862685016,-0.0154572590321,0.044,0.044,0.0088,0.5,0.0,0.5,1.0,1000000000,0,,,0
1450008895845004780,983,1450008895740561199,/camera1,basic_shapes,8,1,0,-0.089931712019,0.0472458435478,0.618638299974,0.0084182857874,0.997671930198,-0.0615090490046,-0.028222137595,0.044,0.044,0.0088,0.5,0.0,0.5,1.0,1000000000,0,,,0
1450008895944340856,984,1450008895844010361,/camera1,basic_shapes,8,1,0,-0.0897687791022,0.0471119289229,0.617602673909,0.00675137261473,0.998405516488,-0.0480814400079,-0.0287926855411,0.044,0.044,0.0088,0.5,0.0,0.5,1.0,1000000000,0,,,0
1450008896043370186,985,1450008895981114633,/camera1,basic_shapes,8,1,0,-0.0890734852768,0.0470424294983,0.616514730124,0.00840923144116,0.996118374927,-0.0817250401753,0.0315988254234,0.044,0.044,0.0088,0.5,0.0,0.5,1.0,1000000000,0,,,0
1450008896153170570,986,1450008896041168211,/camera1,basic_shapes,8,1,0,-0.0887468644001,0.0468288926561,0.614732043848,0.0057149293889,0.997297487693,-0.0668393219408,0.0299594002778,0.044,0.044,0.0088,0.5,0.0,0.5,1.0,1000000000,0,,,0
1450008896243826176,987,1450008896073275946,/camera1,basic_shapes,8,1,0,-0.0886463012444,0.0468042962828,0.614106284399,0.00745363290205,0.995741105101,-0.0879495355604,0.0266265687565,0.044,0.044,0.0088,0.5,0.0,0.5,1.0,1000000000,0,,,0
1450008896340543407,988,1450008896241867253,/camera1,basic_shapes,8,1,0,-0.0883384897943,0.0466586856809,0.61237402539,0.00714668834639,0.993581499912,-0.112709815695,0.00642069497932,0.044,0.044,0.0088,0.5,0.0,0.5,1.0,1000000000,0,,,0
1450008896440640532,989,1450008896324376978,/camera1,basic_shapes,8,1,0,-0.0882446772095,0.0467115693146,0.612941851254,0.00675834224056,0.993342695456,-0.113291600216,-0.0197389846353,0.044,0.044,0.0088,0.5,0.0,0.5,1.0,1000000000,0,,,0
1450008896541454075,990,1450008896420712138,/camera1,basic_shapes,8,1,0,-0.0887299094622,0.0470573380323,0.617099500886,0.00379256689351,0.996183676165,-0.0863132336875,-0.0123986075433,0.044,0.044,0.0088,0.5,0.0,0.5,1.0,1000000000,0,,,0
1450008896643717839,991,1450008896542932494,/camera1,basic_shapes,8,1,0,-0.0891266065959,0.0474650322152,0.620723386159,0.00686549216009,0.998240343834,-0.0556578837936,-0.0192686514909,0.044,0.044,0.0088,0.5,0.0,0.5,1.0,1000000000,0,,,0
1450008896748468848,992,1450008896623708381,/camera1,basic_shapes,8,1,0,-0.0887248877811,0.0471327608923,0.617804385706,0.00725885007486,0.998033244914,-0.0541585416358,-0.0307213852112,0.044,0.044,0.0088,0.5,0.0,0.5,1.0,1000000000,0,,,0
1450008896843251812,993,1450008896725751124,/camera1,basic_shapes,8,1,0,-0.0890353664204,0.0473829596049,0.620070438343,0.00595114898666,0.998544731368,-0.0493757642252,-0.0208575451381,0.044,0.044,0.0088,0.5,0.0,0.5,1.0,1000000000,0,,,0
1450008896946359718,994,1450008896812706555,/camera1,basic_shapes,8,1,0,-0.0886017753826,0.0471261856199,0.617622587314,0.00615198617815,0.999286157838,-0.0311656799173,-0.0204457383091,0.044,0.044,0.0088,0.5,0.0,0.5,1.0,1000000000,0,,,0
1450008897043495137,995,1450008896888789085,/camera1,basic_shapes,8,1,0,-0.0883148089481,0.0471637084534,0.617799884132,0.00678919127659,0.999018890567,-0.0413409625477,0.0143557649932,0.044,0.044,0.0088,0.5,0.0,0.5,1.0,1000000000,0,,,0
1450008897144104462,996,1450008896982160825,/camera1,basic_shapes,8,1,0,-0.0877091034115,0.0468825741147,0.615411342654,0.00300313069501,0.996785669069,-0.0668545870615,0.0440428806178,0.044,0.044,0.0088,0.5,0.0,0.5,1.0,1000000000,0,,,0
1450008897245192289,997,1450008897095934127,/camera1,basic_shapes,8,1,0,-0.0873685869198,0.046697398453,0.613064374304,0.00661861109136,0.994411911167,-0.104472465481,0.0136619497826,0.044,0.044,0.0088,0.5,0.0,0.5,1.0,1000000000,0,,,0
1450008897344263559,998,1450008897260302914,/camera1,basic_shapes,8,1,0,-0.0872676439604,0.0467132631459,0.61301530139,0.00599626153839,0.993493123343,-0.113690401982,-0.00315455455767,0.044,0.044,0.0088,0.5,0.0,0.5,1.0,1000000000,0,,,0
1450008897443598764,999,1450008897343936145,/camera1,basic_shapes,8,1,0,-0.0872942503192,0.0467984236429,0.614162017781,0.00571474371113,0.994249992127,-0.105112295277,-0.0196392525814,0.044,0.044,0.0088,0.5,0.0,0.5,1.0,1000000000,0,,,0
1450008897543856384,1000,1450008897472131673,/camera1,basic_shapes,8,1,0,-0.0873646523963,0.0468644685915,0.614918276381,0.00591552567381,0.994772234074,-0.0995397103849,-0.0220239626053,0.044,0.044,0.0088,0.5,0.0,0.5,1.0,1000000000,0,,,0
1450008897640853239,1001,1450008897576447763,/camera1,basic_shapes,8,1,0,-0.0880185375449,0.0474367897553,0.620537495389,0.00657200573824,0.997927401467,-0.0613261929393,-0.0183523350229,0.044,0.044,0.0088,0.5,0.0,0.5,1.0,1000000000,0,,,0
1450008897741284328,1002,1450008897607564191,/camera1,basic_shapes,8,1,0,-0.0877938619943,0.0472525287285,0.618973960099,0.00610428301048,0.998437672354,-0.0492089160554,-0.025757226839,0.044,0.044,0.0088,0.5,0.0,0.5,1.0,1000000000,0,,,0
1450008897839869835,1003,1450008897713620183,/camera1,basic_shapes,8,1,0,-0.0878275295459,0.047280465982,0.619222403424,0.00602561349366,0.998472577661,-0.0490398669872,-0.0247243824265,0.044,0.044,0.0088,0.5,0.0,0.5,1.0,1000000000,0,,,0
1450008897945446734,1004,1450008897816944162,/camera1,basic_shapes,8,1,0,-0.0881303654057,0.0476008372296,0.621791348549,0.00905402585181,0.997841991308,-0.0639949721456,-0.0115770695444,0.044,0.044,0.0088,0.5,0.0,0.5,1.0,1000000000,0,,,0
1450008898043954348,1005,1450008897984445525,/camera1,basic_shapes,8,1,0,-0.0871045988882,0.0471009374934,0.617349399028,0.00675472519916,0.99793017089,-0.0606737176729,0.020210089046,0.044,0.044,0.0088,0.5,0.0,0.5,1.0,1000000000,0,,,0
1450008898140992654,1006,1450008898016983460,/camera1,basic_shapes,8,1,0,-0.0867903261964,0.0469997474977,0.616241908978,0.00645414010133,0.995002333137,-0.0868651376455,0.0488175069918,0.044,0.044,0.0088,0.5,0.0,0.5,1.0,1000000000,0,,,0
1450008898244921036,1007,1450008898135631897,/camera1,basic_shapes,8,1,0,-0.0865754512657,0.0468692987946,0.614879605345,0.00614480172457,0.995667832234,-0.0856736061242,0.0356067757609,0.044,0.044,0.0088,0.5,0.0,0.5,1.0,1000000000,0,,,0
1450008898344667481,1008,1450008898287089426,/camera1,basic_shapes,8,1,0,-0.0864692729025,0.0468047442879,0.61402228599,0.00796804017295,0.995094822922,-0.0950825624862,0.0261172364839,0.044,0.044,0.0088,0.5,0.0,0.5,1.0,1000000000,0,,,0
1450008898441834821,1009,1450008898315920795,/camera1,basic_shapes,8,1,0,-0.0864824039848,0.0468688478249,0.61423176203,0.00821938694768,0.993660583934,-0.108402587966,0.0286350228855,0.044,0.044,0.0088,0.5,0.0,0.5,1.0,1000000000,0,,,0
1450008898542216675,1010,1450008898430193188,/camera1,basic_shapes,8,1,0,-0.0862627153568,0.0466872826579,0.612582496996,0.00925088288782,0.993913231221,-0.109067433981,0.0124581224189,0.044,0.044,0.0088,0.5,0.0,0.5,1.0,1000000000,0,,,0
1450008898645384932,1011,1450008898540528095,/camera1,basic_shapes,8,1,0,-0.0862662874887,0.0466882078528,0.612793472333,0.00755289609204,0.993976747235,-0.108557843074,0.0129759170938,0.044,0.044,0.0088,0.5,0.0,0.5,1.0,1000000000,0,,,0
1450008898744795037,1012,1450008898681996759,/camera1,basic_shapes,8,1,0,-0.086082617948,0.0466139619545,0.611699580532,0.00812571840071,0.992755544316,-0.119873872877,-0.000810266344799,0.044,0.044,0.0088,0.5,0.0,0.5,1.0,1000000000,0,,,0
1450008898845461196,1013,1450008898782631801,/camera1,basic_shapes,8,1,0,-0.0859358493428,0.046545414224,0.611327951609,0.0072440941317,0.992895024876,-0.117401044165,-0.0179996529172,0.044,0.044,0.0088,0.5,0.0,0.5,1.0,1000000000,0,,,0
1450008898945471138,1014,1450008898827146846,/camera1,basic_shapes,8,1,0,-0.0861403686173,0.046772367243,0.613269522503,0.00709637004077,0.992641563437,-0.119626865283,-0.0173718500046,0.044,0.044,0.0088,0.5,0.0,0.5,1.0,1000000000,0,,,0
1450008899044189017,1015,1450008898919366837,/camera1,basic_shapes,8,1,0,-0.0863254353207,0.0469429665484,0.614905687137,0.00714229616447,0.992989603119,-0.116942276698,-0.0156569353323,0.044,0.044,0.0088,0.5,0.0,0.5,1.0,1000000000,0,,,0
1450008899144257827,1016,1450008899041442337,/camera1,basic_shapes,8,1,0,-0.086910614646,0.0474077037912,0.620436250943,0.00538232384172,0.998373158029,-0.0538942001161,-0.0178180557667,0.044,0.044,0.0088,0.5,0.0,0.5,1.0,1000000000,0,,,0
1450008899241249644,1017,1450008899083900200,/camera1,basic_shapes,8,1,0,-0.0867215745258,0.0472451430678,0.618826635498,0.0068242975832,0.997259005448,-0.0702822401634,-0.022097776661,0.044,0.044,0.0088,0.5,0.0,0.5,1.0,1000000000,0,,,0
1450008899342105334,1018,1450008899213403031,/camera1,basic_shapes,8,1,0,-0.0868253885884,0.0473660483,0.619864413609,0.00795863655856,0.997764092599,-0.0615759437973,-0.0247361833949,0.044,0.044,0.0088,0.5,0.0,0.5,1.0,1000000000,0,,,0
1450008899441078090,1019,1450008899373499508,/camera1,basic_shapes,8,1,0,-0.086930673194,0.0474420468491,0.620669028284,0.00622404571942,0.998419103047,-0.0522554131047,-0.0197465877179,0.044,0.044,0.0088,0.5,0.0,0.5,1.0,1000000000,0,,,0
1450008899546652999,1020,1450008899483683304,/camera1,basic_shapes,8,1,0,-0.0866317263044,0.0471945775349,0.618427725151,0.00743216361531,0.997939073981,-0.0564198431144,-0.0296507819303,0.044,0.044,0.0088,0.5,0.0,0.5,1.0,1000000000,0,,,0
1450008899644718987,1021,1450008899572662242,/camera1,basic_shapes,8,1,0,-0.0868161194195,0.0474686207504,0.620790334344,0.00713487414855,0.998788631675,-0.0483794139728,-0.00545848975489,0.044,0.044,0.0088,0.5,0.0,0.5,1.0,1000000000,0,,,0
1450008899744577380,1022,1450008899656627822,/camera1,basic_shapes,8,1,0,-0.0860568678922,0.0471125626434,0.617453637673,0.00878388781073,0.997507206306,-0.0679871355124,0.0167321871882,0.044,0.044,0.0088,0.5,0.0,0.5,1.0,1000000000,0,,,0
1450008899848803340,1023,1450008899713151320,/camera1,basic_shapes,8,1,0,-0.0858781289839,0.0470262487922,0.616814151426,0.00716597810138,0.997426412189,-0.0645903195415,0.0302868229827,0.044,0.044,0.0088,0.5,0.0,0.5,1.0,1000000000,0,,,0
1450008899944363048,1024,1450008899794512652,/camera1,basic_shapes,8,1,0,-0.085431120455,0.0468333892676,0.6143882833,0.00729746978999,0.995101138168,-0.0938268772026,0.0302818240327,0.044,0.044,0.0088,0.5,0.0,0.5,1.0,1000000000,0,,,0
1450008900045265008,1025,1450008899953122163,/camera1,basic_shapes,8,1,0,-0.0852908267058,0.0466826313048,0.61367906172,0.00416522873641,0.99599776279,-0.0863997133722,0.022498820317,0.044,0.044,0.0088,0.5,0.0,0.5,1.0,1000000000,0,,,0
1450008900145497763,1026,1450008900073062583,/camera1,basic_shapes,8,1,0,-0.0849476011248,0.0466432640658,0.61201361696,0.00758492147928,0.992404010237,-0.121776820011,-0.0157211812165,0.044,0.044,0.0088,0.5,0.0,0.5,1.0,1000000000,0,,,0
1450008900247156869,1027,1450008900172682328,/camera1,basic_shapes,8,1,0,-0.0851103158777,0.0468315118942,0.614151760856,0.00741724392089,0.993345437514,-0.112134474049,-0.0252128140708,0.044,0.044,0.0088,0.5,0.0,0.5,1.0,1000000000,0,,,0
1450008900340873626,1028,1450008900216864720,/camera1,basic_shapes,8,1,0,-0.0855328743643,0.0471187443152,0.617717999336,0.00480705333014,0.996233396103,-0.0851442956751,-0.0156959116012,0.044,0.044,0.0088,0.5,0.0,0.5,1.0,1000000000,0,,,0
1450008900441110765,1029,1450008900348476696,/camera1,basic_shapes,8,1,0,-0.0855654269785,0.0472125398939,0.618599326194,0.00779755758291,0.997776703391,-0.0590544066083,-0.0298902212443,0.044,0.044,0.0088,0.5,0.0,0.5,1.0,1000000000,0,,,0
1450008900544642885,1030,1450008900439517794,/camera1,basic_shapes,8,1,0,-0.0857433128282,0.0473507198638,0.619970166092,0.00536753290475,0.998661111982,-0.0464880158084,-0.0220462557048,0.044,0.044,0.0088,0.5,0.0,0.5,1.0,1000000000,0,,,0
1450008900644013854,1031,1450008900526773938,/camera1,basic_shapes,8,1,0,-0.0859789232785,0.0475539161948,0.62176090731,0.00497535440822,0.99881533639,-0.0462947749983,-0.0141408432942,0.044,0.044,0.0088,0.5,0.0,0.5,1.0,1000000000,0,,,0
1450008900745089821,1032,1450008900617134192,/camera1,basic_shapes,8,1,0,-0.0857457114221,0.0474587423476,0.620699861257,0.00853141945446,0.998241785597,-0.057540552172,-0.0113858344581,0.044,0.044,0.0088,0.5,0.0,0.5,1.0,1000000000,0,,,0
1450008900844592909,1033,1450008900745021982,/camera1,basic_shapes,8,1,0,-0.0845986050714,0.0469691212763,0.615914705239,0.00883176044495,0.994530507532,-0.0951622131881,0.042133392651,0.044,0.044,0.0088,0.5,0.0,0.5,1.0,1000000000,0,,,0
1450008900941155945,1034,1450008900843191979,/camera1,basic_shapes,8,1,0,-0.0844022691387,0.0469354943498,0.614879354184,0.00771981975182,0.99330186562,-0.108631309597,0.0386140740506,0.044,0.044,0.0088,0.5,0.0,0.5,1.0,1000000000,0,,,0
1450008901039995968,1035,1450008900974771018,/camera1,basic_shapes,8,1,0,-0.0841982578159,0.0467096730425,0.613557170697,0.00551052464282,0.994929147178,-0.0983657847232,0.0202434831178,0.044,0.044,0.0088,0.5,0.0,0.5,1.0,1000000000,0,,,0
1450008901140498722,1036,1450008901046996981,/camera1,basic_shapes,8,1,0,-0.0839781131073,0.046653529767,0.61219937873,0.00683461555657,0.992621770198,-0.121052030481,0.00130968496303,0.044,0.044,0.0088,0.5,0.0,0.5,1.0,1000000000,0,,,0
1450008901240203947,1037,1450008901076987791,/camera1,basic_shapes,8,1,0,-0.0841131337814,0.0466989289028,0.613122932158,0.00563241135817,0.993797860582,-0.110415577234,0.0119368567328,0.044,0.044,0.0088,0.5,0.0,0.5,1.0,1000000000,0,,,0
1450008901345177074,1038,1450008901274307282,/camera1,basic_shapes,8,1,0,-0.0841686553337,0.0468654007816,0.61502581374,0.0045483414319,0.99444941539,-0.104165669056,-0.0141133344882,0.044,0.044,0.0088,0.5,0.0,0.5,1.0,1000000000,0,,,0
1450008901443450401,1039,1450008901307449633,/camera1,basic_shapes,8,1,0,-0.0841184943608,0.0469178944419,0.614847158842,0.00766826228176,0.993130994269,-0.114453919417,-0.0230721976703,0.044,0.044,0.0088,0.5,0.0,0.5,1.0,1000000000,0,,,0
1450008901544377408,1040,1450008901471425215,/camera1,basic_shapes,8,1,0,-0.0841261490395,0.0468380814867,0.615119049825,0.00545763427173,0.995600066686,-0.0901176538754,-0.0250904345116,0.044,0.044,0.0088,0.5,0.0,0.5,1.0,1000000000,0,,,0
1450008901644473490,1041,1450008901508470733,/camera1,basic_shapes,8,1,0,-0.0842136144227,0.0469540422592,0.615774547418,0.00627593678743,0.99460517039,-0.10112480765,-0.022247267884,0.044,0.044,0.0088,0.5,0.0,0.5,1.0,1000000000,0,,,0
1450008901744072274,1042,1450008901615397787,/camera1,basic_shapes,8,1,0,-0.0847228833289,0.0474152704466,0.620504533491,0.00662315562901,0.998225044716,-0.0550042424077,-0.0218501081867,0.044,0.044,0.0088,0.5,0.0,0.5,1.0,1000000000,0,,,0
1450008901844745028,1043,1450008901744936294,/camera1,basic_shapes,8,1,0,-0.0844587236274,0.047188107059,0.618474284249,0.00734460657653,0.997910598524,-0.0565082463395,-0.0304518013297,0.044,0.044,0.0088,0.5,0.0,0.5,1.0,1000000000,0,,,0
1450008901943111167,1044,1450008901827076198,/camera1,basic_shapes,8,1,0,-0.0846076667646,0.0473068502233,0.619637384159,0.00535089836808,0.998632475122,-0.0462151547813,-0.0238475782376,0.044,0.044,0.0088,0.5,0.0,0.5,1.0,1000000000,0,,,0
1450008902044404071,1045,1450008901942078424,/camera1,basic_shapes,8,1,0,-0.084515488594,0.047362383543,0.619812344461,0.00583462172272,0.999525303778,-0.0282062452725,-0.0109330701941,0.044,0.044,0.0088,0.5,0.0,0.5,1.0,1000000000,0,,,0
1450008902146586943,1046,1450008902048547212,/camera1,basic_shapes,8,1,0,-0.0843274513198,0.0473933775776,0.620048304195,0.00934755097979,0.997280383066,-0.0711537850492,0.0167809331143,0.044,0.044,0.0088,0.5,0.0,0.5,1.0,1000000000,0,,,0
1450008902244199476,1047,1450008902076304468,/camera1,basic_shapes,8,1,0,-0.0833600677429,0.0469251167487,0.61492447788,0.00941887048801,0.9935583256,-0.107967687115,0.0331076584706,0.044,0.044,0.0088,0.5,0.0,0.5,1.0,1000000000,0,,,0
1450008902341973677,1048,1450008902241424896,/camera1,basic_shapes,8,1,0,-0.0832941703499,0.0471007080344,0.614980370598,-0.00322986159762,0.997554210175,0.0290693860233,0.063483356495,0.044,0.044,0.0088,0.5,0.0,0.5,1.0,1000000000,0,,,0
1450008902444565579,1049,1450008902344333216,/camera1,basic_shapes,8,1,0,-0.0833553732389,0.0469594781136,0.615361005299,0.00570489247135,0.993099659012,-0.106682298626,0.0483674335967,0.044,0.044,0.0088,0.5,0.0,0.5,1.0,1000000000,0,,,0
1450008902545140269,1050,1450008902474270138,/camera1,basic_shapes,8,1,0,-0.0829192251315,0.0467155366992,0.612622116176,0.00673001303053,0.992107956187,-0.125172928392,-0.00287196675886,0.044,0.044,0.0088,0.5,0.0,0.5,1.0,1000000000,0,,,0
1450008902644639935,1051,1450008902576725667,/camera1,basic_shapes,8,1,0,-0.0829942100092,0.0468352832265,0.614449969022,0.00650758824703,0.993708799162,-0.109474825999,-0.0227098268335,0.044,0.044,0.0088,0.5,0.0,0.5,1.0,1000000000,0,,,0
1450008902746774766,1052,1450008902648498574,/camera1,basic_shapes,8,1,0,-0.0833947998018,0.0471339262854,0.618034066026,0.00395316430688,0.996296162243,-0.084750275702,-0.0139900092973,0.044,0.044,0.0088,0.5,0.0,0.5,1.0,1000000000,0,,,0
1450008902846802812,1053,1450008902784515171,/camera1,basic_shapes,8,1,0,-0.0838570246489,0.0476028290338,0.622306462521,0.00447585568616,0.998936255508,-0.0443065067539,-0.0119690269814,0.044,0.044,0.0088,0.5,0.0,0.5,1.0,1000000000,0,,,0
1450008902944687286,1054,1450008902823563290,/camera1,basic_shapes,8,1,0,-0.0835517082445,0.0473676797317,0.619870642917,0.0091306978895,0.997137841158,-0.0698876903349,-0.0273581217676,0.044,0.044,0.0088,0.5,0.0,0.5,1.0,1000000000,0,,,0
1450008903044055739,1055,1450008902981230631,/camera1,basic_shapes,8,1,0,-0.0838211411619,0.0475789315615,0.621999347853,0.00621624552466,0.998340879058,-0.0550575548847,-0.0156688590347,0.044,0.044,0.0088,0.5,0.0,0.5,1.0,1000000000,0,,,0
1450008903143906078,1056,1450008903021684848,/camera1,basic_shapes,8,1,0,-0.0836864303194,0.0475334095028,0.621609037617,0.00536814651463,0.998917378874,-0.0456952542855,-0.00687000159813,0.044,0.044,0.0088,0.5,0.0,0.5,1.0,1000000000,0,,,0
1450008903241815720,1057,1450008903140465979,/camera1,basic_shapes,8,1,0,-0.0823163447018,0.0469425498586,0.615514059326,0.00588631623751,0.990113444753,-0.109889532604,0.0869770568866,0.044,0.044,0.0088,0.5,0.0,0.5,1.0,1000000000,0,,,0
1450008903340522546,1058,1450008903238936388,/camera1,basic_shapes,8,1,0,-0.0820397240444,0.0467384513177,0.613289494503,0.00855509145471,0.994033198292,-0.107121185463,0.0187046178501,0.044,0.044,0.0088,0.5,0.0,0.5,1.0,1000000000,0,,,0
1450008903440062666,1059,1450008903337908746,/camera1,basic_shapes,8,1,0,-0.0822021544949,0.0470990376378,0.614884457611,-0.00368290216905,0.99768621169,0.0308669365149,0.0604639683301,0.044,0.044,0.0088,0.5,0.0,0.5,1.0,1000000000,0,,,0
1450008903541821997,1060,1450008903437111575,/camera1,basic_shapes,8,1,0,-0.081901760333,0.046674834423,0.612509383117,0.00775456223279,0.993020914355,-0.117381335455,0.00842333092846,0.044,0.044,0.0088,0.5,0.0,0.5,1.0,1000000000,0,,,0
1450008903642942312,1061,1450008903545263392,/camera1,basic_shapes,8,1,0,-0.0820426470137,0.0468150449082,0.613681725843,0.00691672746601,0.992563513019,-0.12008170818,0.018714028564,0.044,0.044,0.0088,0.5,0.0,0.5,1.0,1000000000,0,,,0
1450008903740290111,1062,1450008903615746047,/camera1,basic_shapes,8,1,0,-0.0820219418981,0.0467981132836,0.613938066473,0.00509411713616,0.993193060563,-0.115830230652,0.0111781969509,0.044,0.044,0.0088,0.5,0.0,0.5,1.0,1000000000,0,,,0
1450008903843915657,1063,1450008903742885812,/camera1,basic_shapes,8,1,0,-0.0822477657836,0.0470942812544,0.61733275173,0.00417186931709,0.99493916407,-0.0997353303296,-0.0114681816282,0.044,0.044,0.0088,0.5,0.0,0.5,1.0,1000000000,0,,,0
1450008903945286832,1064,1450008903803870475,/camera1,basic_shapes,8,1,0,-0.0821599386356,0.0470169122728,0.616536912847,0.00478761012292,0.994736443578,-0.10135738575,-0.0142536648303,0.044,0.044,0.0088,0.5,0.0,0.5,1.0,1000000000,0,,,0
1450008904039572141,1065,1450008903914071927,/camera1,basic_shapes,8,1,0,-0.0826823719118,0.0474972557776,0.62149980351,0.00418109758315,0.998466067898,-0.0540026284398,-0.0114780573261,0.044,0.044,0.0088,0.5,0.0,0.5,1.0,1000000000,0,,,0
1450008904144787577,1066,1450008904039790629,/camera1,basic_shapes,8,1,0,-0.0823551912934,0.0472311598361,0.619112946845,0.00363506592568,0.99903414977,-0.0360376882102,-0.0248764731876,0.044,0.044,0.0088,0.5,0.0,0.5,1.0,1000000000,0,,,0
1450008904243761359,1067,1450008904120397612,/camera1,basic_shapes,8,1,0,-0.0825689993677,0.0474228368724,0.620794621111,0.00406714415935,0.99901384217,-0.0401812054724,-0.0184464690019,0.044,0.044,0.0088,0.5,0.0,0.5,1.0,1000000000,0,,,0
1450008904344379215,1068,1450008904218844809,/camera1,basic_shapes,8,1,0,-0.0824319377621,0.0473397432524,0.619934738267,0.00685947201401,0.998464935099,-0.0505381389289,-0.0216013317851,0.044,0.044,0.0088,0.5,0.0,0.5,1.0,1000000000,0,,,0
1450008904443966297,1069,1450008904348157880,/camera1,basic_shapes,8,1,0,-0.08241096932,0.0474739796959,0.620934435345,0.00896399729961,0.998271041516,-0.0580685292931,-0.00161874319241,0.044,0.044,0.0088,0.5,0.0,0.5,1.0,1000000000,0,,,0
1450008904544781088,1070,1450008904447791661,/camera1,basic_shapes,8,1,0,-0.0811057164703,0.047046138978,0.614808957814,-0.00276766281657,0.997734439371,0.0257833675522,0.0620769401162,0.044,0.044,0.0088,0.5,0.0,0.5,1.0,1000000000,0,,,0
1450008904644961985,1071,1450008904542080946,/camera1,basic_shapes,8,1,0,-0.0810977781432,0.0471622345133,0.614794513681,-0.00376851883624,0.996962570034,0.0410052094217,0.0661060134738,0.044,0.044,0.0088,0.5,0.0,0.5,1.0,1000000000,0,,,0
1450008904740120174,1072,1450008904647701237,/camera1,basic_shapes,8,1,0,-0.0808964816414,0.046698408482,0.613038776235,0.00760609974216,0.993850291947,-0.109808390557,0.0120773261314,0.044,0.044,0.0088,0.5,0.0,0.5,1.0,1000000000,0,,,0
1450008904839314920,1073,1450008904747412289,/camera1,basic_shapes,8,1,0,-0.0810455020027,0.0469204681311,0.615490169087,0.00369914058518,0.993946185894,-0.109762690957,0.00307369139655,0.044,0.044,0.0088,0.5,0.0,0.5,1.0,1000000000,0,,,0
1450008904941787515,1074,1450008904846483386,/camera1,basic_shapes,8,1,0,-0.0809558161311,0.0469682501487,0.615625574858,0.00687090640572,0.993526588868,-0.111184043931,-0.0222669313612,0.044,0.044,0.0088,0.5,0.0,0.5,1.0,1000000000,0,,,0
1450008905043390290,1075,1450008904949820491,/camera1,basic_shapes,8,1,0,-0.0814580366482,0.0473545334667,0.620303916198,0.00393201223687,0.99772624278,-0.0660047130578,-0.0130484329361,0.044,0.044,0.0088,0.5,0.0,0.5,1.0,1000000000,0,,,0
1450008905140401877,1076,1450008905045140211,/camera1,basic_shapes,8,1,0,-0.0815121901833,0.0474508469939,0.621083545962,0.00432967538283,0.99893321756,-0.0422832732823,-0.0180500849645,0.044,0.044,0.0088,0.5,0.0,0.5,1.0,1000000000,0,,,0
1450008905244010781,1077,1450008905171923217,/camera1,basic_shapes,8,1,0,-0.0815993791989,0.0475330159508,0.621770914118,0.00506879920368,0.998712955398,-0.0478245802591,-0.0161105405846,0.044,0.044,0.0088,0.5,0.0,0.5,1.0,1000000000,0,,,0
1450008905351935589,1078,1450008905275188277,/camera1,basic_shapes,8,1,0,-0.081533093706,0.0475301878011,0.621615826392,0.00720961470496,0.998495763669,-0.0527316647437,-0.0131758462569,0.044,0.044,0.0088,0.5,0.0,0.5,1.0,1000000000,0,,,0
1450008905442989869,1079,1450008905364997026,/camera1,basic_shapes,8,1,0,-0.0808089691746,0.0472295633855,0.619192928991,0.00687588957525,0.994495621349,-0.0849020234775,0.0610149790647,0.044,0.044,0.0088,0.5,0.0,0.5,1.0,1000000000,0,,,0
1450008905547117970,1080,1450008905452476476,/camera1,basic_shapes,8,1,0,-0.0800906183701,0.0469203984128,0.614957473289,0.0079107013493,0.993080066874,-0.110284023566,0.0395832758573,0.044,0.044,0.0088,0.5,0.0,0.5,1.0,1000000000,0,,,0
1450008905640235260,1081,1450008905553889823,/camera1,basic_shapes,8,1,0,-0.0800165247687,0.0468670927483,0.614429349115,0.00771235196736,0.993401141944,-0.109425584843,0.0334773385117,0.044,0.044,0.0088,0.5,0.0,0.5,1.0,1000000000,0,,,0
1450008905743063294,1082,1450008905614796272,/camera1,basic_shapes,8,1,0,-0.0799522332489,0.0468299619926,0.613841857817,0.00903486466291,0.993075636678,-0.114316397665,0.0255129826195,0.044,0.044,0.0088,0.5,0.0,0.5,1.0,1000000000,0,,,0
1450008905842847679,1083,1450008905715338918,/camera1,basic_shapes,8,1,0,-0.0799149805196,0.0468031408096,0.613714445098,0.0079272770627,0.993049016014,-0.115320423775,0.0221812969175,0.044,0.044,0.0088,0.5,0.0,0.5,1.0,1000000000,0,,,0
1450008905944748275,1084,1450008905855606935,/camera1,basic_shapes,8,1,0,-0.079864770725,0.0467559556641,0.613467412453,0.00673738376165,0.993194352838,-0.114827832877,0.0182798782152,0.044,0.044,0.0088,0.5,0.0,0.5,1.0,1000000000,0,,,0
1450008906044211818,1085,1450008905953558761,/camera1,basic_shapes,8,1,0,-0.0797674823307,0.046754824586,0.612971292948,0.00697000543666,0.99192224031,-0.126481151372,0.00664880059101,0.044,0.044,0.0088,0.5,0.0,0.5,1.0,1000000000,0,,,0
1450008906142715365,1086,1450008906037778340,/camera1,basic_shapes,8,1,0,-0.0797236172873,0.0467062280006,0.613479310733,0.00537083690761,0.993854100707,-0.109989909479,-0.0112871799624,0.044,0.044,0.0088,0.5,0.0,0.5,1.0,1000000000,0,,,0
1450008906244176083,1087,1450008906135846567,/camera1,basic_shapes,8,1,0,-0.0799197979733,0.0470107489967,0.615946335552,0.00632194582414,0.993204551046,-0.114687629772,-0.0187483428352,0.044,0.044,0.0088,0.5,0.0,0.5,1.0,1000000000,0,,,0
1450008906343535032,1088,1450008906274598190,/camera1,basic_shapes,8,1,0,-0.0803981868108,0.047404103208,0.620709394883,0.00502770613746,0.998045659565,-0.0598986069021,-0.0170804123228,0.044,0.044,0.0088,0.5,0.0,0.5,1.0,1000000000,0,,,0
1450008906441106882,1089,1450008906346550451,/camera1,basic_shapes,8,1,0,-0.0805074733216,0.0475421645651,0.621769867306,0.0067655670807,0.998043221291,-0.0592458671169,-0.0188117720503,0.044,0.044,0.0088,0.5,0.0,0.5,1.0,1000000000,0,,,0
1450008906542296978,1090,1450008906442198391,/camera1,basic_shapes,8,1,0,-0.0805223784414,0.0475539332987,0.621894609626,0.00651683177451,0.998144404755,-0.0578111264236,-0.0179764240629,0.044,0.044,0.0088,0.5,0.0,0.5,1.0,1000000000,0,,,0
1450008906643440183,1091,1450008906542471850,/camera1,basic_shapes,8,1,0,-0.0805887146531,0.0476078631461,0.622453932736,0.00530130622835,0.998606107417,-0.0506375378734,-0.0139132361541,0.044,0.044,0.0088,0.5,0.0,0.5,1.0,1000000000,0,,,0
1450008906743669327,1092,1450008906674663602,/camera1,basic_shapes,8,1,0,-0.080164388461,0.0474548235667,0.62088050334,0.00744304432358,0.998160933669,-0.0599743854046,0.00473547071408,0.044,0.044,0.0088,0.5,0.0,0.5,1.0,1000000000,0,,,0
1450008906846171032,1093,1450008906773671779,/camera1,basic_shapes,8,1,0,-0.0794251394579,0.04712788599,0.6175341046,0.00639925213746,0.994581151159,-0.0938905082928,0.0441809436704,0.044,0.044,0.0088,0.5,0.0,0.5,1.0,1000000000,0,,,0
1450008906944064387,1094,1450008906806667214,/camera1,basic_shapes,8,1,0,-0.0792813827241,0.0470927403121,0.61683220548,0.00626572226336,0.992261350389,-0.108153417743,0.0606711750253,0.044,0.044,0.0088,0.5,0.0,0.5,1.0,1000000000,0,,,0
1450008907043800063,1095,1450008906943079698,/camera1,basic_shapes,8,1,0,-0.0789384112184,0.046827735627,0.614470558545,0.00671633768086,0.994331996674,-0.100515404027,0.033991539408,0.044,0.044,0.0088,0.5,0.0,0.5,1.0,1000000000,0,,,0
1450008907143121149,1096,1450008907046753458,/camera1,basic_shapes,8,1,0,-0.0788234354736,0.0467651328288,0.613522141624,0.00825164869203,0.993524936281,-0.111329653862,0.0211144370801,0.044,0.044,0.0088,0.5,0.0,0.5,1.0,1000000000,0,,,0
1450008907239508787,1097,1450008907136852637,/camera1,basic_shapes,8,1,0,-0.0787372702974,0.0467099496943,0.613060551017,0.00727996434481,0.993262571861,-0.114908377057,0.0131350805283,0.044,0.044,0.0088,0.5,0.0,0.5,1.0,1000000000,0,,,0
1450008907343856018,1098,1450008907238939273,/camera1,basic_shapes,8,1,0,-0.0785904016946,0.0466759007548,0.611869010804,0.00960793426156,0.991388108351,-0.130595642703,0.00144371947992,0.044,0.044,0.0088,0.5,0.0,0.5,1.0,1000000000,0,,,0
1450008907443599689,1099,1450008907337029106,/camera1,basic_shapes,8,1,0,-0.0787291056534,0.0467001559084,0.613089228346,0.00661911117117,0.993396065444,-0.113896439388,0.0121673999709,0.044,0.044,0.0088,0.5,0.0,0.5,1.0,1000000000,0,,,0
1450008907543507006,1100,1450008907441611325,/camera1,basic_shapes,8,1,0,-0.0785621179185,0.0466545635988,0.612084592788,0.00775550417693,0.991920284986,-0.126513462891,-0.005323917319,0.044,0.044,0.0088,0.5,0.0,0.5,1.0,1000000000,0,,,0
1450008907640939363,1101,1450008907543747864,/camera1,basic_shapes,8,1,0,-0.0785906202989,0.0467435461801,0.61348013073,0.00605600717726,0.992761670693,-0.118067515491,-0.0211577826011,0.044,0.044,0.0088,0.5,0.0,0.5,1.0,1000000000,0,,,0
1450008907740826183,1102,1450008907615433918,/camera1,basic_shapes,8,1,0,-0.0785923172045,0.0467989265878,0.613475079205,0.0070358366805,0.991685591839,-0.12669322148,-0.0214245553397,0.044,0.044,0.0088,0.5,0.0,0.5,1.0,1000000000,0,,,0
1450008907842770593,1103,1450008907767955744,/camera1,basic_shapes,8,1,0,-0.0787170987802,0.0468937964927,0.614868028874,0.00662418322258,0.992969231225,-0.116004526952,-0.0226091964242,0.044,0.044,0.0088,0.5,0.0,0.5,1.0,1000000000,0,,,0
1450008907941288681,1104,1450008907870554425,/camera1,basic_shapes,8,1,0,-0.0790891783565,0.0472363861428,0.618902618136,0.00818846284736,0.996664084419,-0.0758887549779,-0.0288885578396,0.044,0.044,0.0088,0.5,0.0,0.5,1.0,1000000000,0,,,0
1450008908041209778,1105,1450008907969693177,/camera1,basic_shapes,8,1,0,-0.0792022730673,0.0473516512685,0.62001963862,0.00819631136889,0.997407467072,-0.0657470221683,-0.0280801386167,0.044,0.044,0.0088,0.5,0.0,0.5,1.0,1000000000,0,,,0
1450008908147826554,1106,1450008908045194866,/camera1,basic_shapes,8,1,0,-0.0790566661096,0.0471917186719,0.618854427926,0.00572889371571,0.998352684127,-0.048588761855,-0.0299704870548,0.044,0.044,0.0088,0.5,0.0,0.5,1.0,1000000000,0,,,0
1450008908240211402,1107,1450008908134087519,/camera1,basic_shapes,8,1,0,-0.0795387370884,0.0476446520101,0.622894559199,0.00244183198592,0.999433102187,-0.0326980402133,-0.0076387090289,0.044,0.044,0.0088,0.5,0.0,0.5,1.0,1000000000,0,,,0
1450008908344594563,1108,1450008908219591691,/camera1,basic_shapes,8,1,0,-0.0792447071865,0.0473912253161,0.620523180883,0.00684756275812,0.998239008999,-0.0544317790123,-0.0225648671781,0.044,0.044,0.0088,0.5,0.0,0.5,1.0,1000000000,0,,,0
1450008908440618973,1109,1450008908315124278,/camera1,basic_shapes,8,1,0,-0.0789679985546,0.0473607342448,0.620010577651,0.00877630515984,0.997734400542,-0.0666826161804,-0.00157198684405,0.044,0.044,0.0088,0.5,0.0,0.5,1.0,1000000000,0,,,0
1450008908543623780,1110,1450008908481165278,/camera1,basic_shapes,8,1,0,-0.0785949679095,0.0472110000716,0.618612129196,0.00904858075753,0.996175667195,-0.0830747654997,0.0255097356339,0.044,0.044,0.0088,0.5,0.0,0.5,1.0,1000000000,0,,,0
1450008908648827651,1111,1450008908509927195,/camera1,basic_shapes,8,1,0,-0.0779991049341,0.0469219059512,0.615544196091,0.006658687028,0.992824612389,-0.104675524414,0.0574280899006,0.044,0.044,0.0088,0.5,0.0,0.5,1.0,1000000000,0,,,0
1450008908764739775,1112,1450008908617356241,/camera1,basic_shapes,8,1,0,-0.0778166314546,0.0468491669559,0.613922613885,0.0101234672534,0.992549235698,-0.119058602255,0.023844902062,0.044,0.044,0.0088,0.5,0.0,0.5,1.0,1000000000,0,,,0
1450008908851730144,1113,1450008908680802336,/camera1,basic_shapes,8,1,0,-0.0777483253824,0.0467438847389,0.613291301611,0.0102048942271,0.993579135632,-0.111473680429,0.0164310663936,0.044,0.044,0.0088,0.5,0.0,0.5,1.0,1000000000,0,,,0
1450008908942290205,1114,1450008908822298201,/camera1,basic_shapes,8,1,0,-0.077727766241,0.0467745521554,0.613284097589,0.00967703967306,0.992872802735,-0.117201468753,0.0193330859931,0.044,0.044,0.0088,0.5,0.0,0.5,1.0,1000000000,0,,,0
1450008909043904760,1115,1450008908882209044,/camera1,basic_shapes,8,1,0,-0.0777947091319,0.0468465510633,0.61390382271,0.00894815115669,0.992546132832,-0.118536704563,0.0268543192492,0.044,0.044,0.0088,0.5,0.0,0.5,1.0,1000000000,0,,,0
1450008909142028983,1116,1450008909015996170,/camera1,basic_shapes,8,1,0,-0.077698037066,0.0467362658152,0.613112305251,0.00906340640715,0.99319067486,-0.114971155432,0.01648549223,0.044,0.044,0.0088,0.5,0.0,0.5,1.0,1000000000,0,,,0
1450008909243725709,1117,1450008909148609750,/camera1,basic_shapes,8,1,0,-0.0777313441873,0.0468168583615,0.613812021078,0.00629949588775,0.992297008651,-0.122095755566,0.0199897335102,0.044,0.044,0.0088,0.5,0.0,0.5,1.0,1000000000,0,,,0
1450008909344791513,1118,1450008909271597990,/camera1,basic_shapes,8,1,0,-0.0780727123747,0.0472613202983,0.619328723106,0.00581697816754,0.996735748292,-0.0778562146685,-0.0205528752068,0.044,0.044,0.0088,0.5,0.0,0.5,1.0,1000000000,0,,,0
1450008909443217650,1119,1450008909338485325,/camera1,basic_shapes,8,1,0,-0.0781483280653,0.0473659327632,0.620038886569,0.00753661134805,0.996418758949,-0.081412512689,-0.0215605909243,0.044,0.044,0.0088,0.5,0.0,0.5,1.0,1000000000,0,,,0
1450008909540704017,1120,1450008909438091772,/camera1,basic_shapes,8,1,0,-0.0782451241814,0.0474742237205,0.621145937533,0.00788751917063,0.997486214735,-0.0662970454848,-0.0237432140615,0.044,0.044,0.0088,0.5,0.0,0.5,1.0,1000000000,0,,,0
1450008909641444614,1121,1450008909510698478,/camera1,basic_shapes,8,1,0,-0.0780516181374,0.0472782767378,0.619538835227,0.00721849918651,0.997795587459,-0.0589967060774,-0.0295169034481,0.044,0.044,0.0088,0.5,0.0,0.5,1.0,1000000000,0,,,0
1450008909745029528,1122,1450008909674725421,/camera1,basic_shapes,8,1,0,-0.0781421725347,0.0473731634132,0.620447590168,0.006361471991,0.99843513525,-0.050690764061,-0.0227433245581,0.044,0.044,0.0088,0.5,0.0,0.5,1.0,1000000000,0,,,0
1450008909843057089,1123,1450008909750545593,/camera1,basic_shapes,8,1,0,-0.0772955284545,0.04711824158,0.61744475102,0.010215500025,0.994298161873,-0.100741086464,0.0334371403353,0.044,0.044,0.0088,0.5,0.0,0.5,1.0,1000000000,0,,,0
1450008909942161274,1124,1450008909871190046,/camera1,basic_shapes,8,1,0,-0.0767025853624,0.0467812349308,0.613799053295,0.00807107692229,0.993690344034,-0.108972233218,0.0252865631897,0.044,0.044,0.0088,0.5,0.0,0.5,1.0,1000000000,0,,,0
1450008910043189313,1125,1450008909976579636,/camera1,basic_shapes,8,1,0,-0.0766711476378,0.0467773216928,0.613505255963,0.00896201774539,0.993147940331,-0.114460141349,0.0218111644978,0.044,0.044,0.0088,0.5,0.0,0.5,1.0,1000000000,0,,,0
1450008910140535045,1126,1450008910016369524,/camera1,basic_shapes,8,1,0,-0.0766296985981,0.0467374580753,0.613334921709,0.00773059507759,0.993296987262,-0.113895082134,0.0181450616138,0.044,0.044,0.0088,0.5,0.0,0.5,1.0,1000000000,0,,,0
1450008910240975610,1127,1450008910110685468,/camera1,basic_shapes,8,1,0,-0.0767635576135,0.046866508896,0.614636393371,0.00567328884013,0.992938096908,-0.112707140154,0.0365903000865,0.044,0.044,0.0088,0.5,0.0,0.5,1.0,1000000000,0,,,0
1450008910344301033,1128,1450008910242394016,/camera1,basic_shapes,8,1,0,-0.0767375749251,0.0468649491291,0.614363098603,0.00663885411154,0.992544348904,-0.117575363848,0.0314272953241,0.044,0.044,0.0088,0.5,0.0,0.5,1.0,1000000000,0,,,0
1450008910440298314,1129,1450008910336344863,/camera1,basic_shapes,8,1,0,-0.0766677146137,0.0468117257262,0.613889156869,0.00651194774912,0.992587736795,-0.119449969503,0.0214215799322,0.044,0.044,0.0088,0.5,0.0,0.5,1.0,1000000000,0,,,0
1450008910548709084,1130,1450008910427414292,/camera1,basic_shapes,8,1,0,-0.076632830972,0.04678854594,0.61346023026,0.00782227115526,0.992355446097,-0.121851466199,0.0179360213104,0.044,0.044,0.0088,0.5,0.0,0.5,1.0,1000000000,0,,,0
1450008910641556755,1131,1450008910570214411,/camera1,basic_shapes,8,1,0,-0.0766012567475,0.0467955747029,0.61346771003,0.00656843211378,0.991890067239,-0.126190281857,0.0136734405763,0.044,0.044,0.0088,0.5,0.0,0.5,1.0,1000000000,0,,,0
1450008910741089316,1132,1450008910667299481,/camera1,basic_shapes,8,1,0,-0.0765832163667,0.046781108308,0.613586459692,0.00540034712114,0.992236242573,-0.123929644981,0.00891730172717,0.044,0.044,0.0088,0.5,0.0,0.5,1.0,1000000000,0,,,0
1450008910840412063,1133,1450008910770869670,/camera1,basic_shapes,8,1,0,-0.0763721718789,0.0466109562721,0.611498088906,0.00919126636007,0.991549652317,-0.129286630712,-0.00545662270464,0.044,0.044,0.0088,0.5,0.0,0.5,1.0,1000000000,0,,,0
1450008910944965392,1134,1450008910838814882,/camera1,basic_shapes,8,1,0,-0.0763277421225,0.0466028192235,0.611581876275,0.00779370025324,0.991510114158,-0.129173277654,-0.0126970901659,0.044,0.044,0.0088,0.5,0.0,0.5,1.0,1000000000,0,,,0
1450008911041953178,1135,1450008910903306269,/camera1,basic_shapes,8,1,0,-0.0764618523024,0.0467890180822,0.613744541036,0.00608299760808,0.992205207502,-0.122745449589,-0.020624692734,0.044,0.044,0.0088,0.5,0.0,0.5,1.0,1000000000,0,,,0
1450008911141590341,1136,1450008911033525077,/camera1,basic_shapes,8,1,0,-0.0767289282255,0.0470449968742,0.615875108993,0.00516557125657,0.991920913908,-0.126692474499,-0.00390311819156,0.044,0.044,0.0088,0.5,0.0,0.5,1.0,1000000000,0,,,0
1450008911244390191,1137,1450008911179359471,/camera1,basic_shapes,8,1,0,-0.0764793414839,0.0468199730004,0.61343705299,0.00646399345814,0.991042530731,-0.132824586298,-0.012269814375,0.044,0.044,0.0088,0.5,0.0,0.5,1.0,1000000000,0,,,0
1450008911340972623,1138,1450008911269882982,/camera1,basic_shapes,8,1,0,-0.07681088517,0.0470271768889,0.616561631233,0.00289572298782,0.993605658309,-0.112745934867,0.00526922541789,0.044,0.044,0.0088,0.5,0.0,0.5,1.0,1000000000,0,,,0
1450008911441046246,1139,1450008911337530873,/camera1,basic_shapes,8,1,0,-0.0767192683425,0.0469937475491,0.616088517349,0.0037416189336,0.993249301701,-0.115665080125,-0.00796330320385,0.044,0.044,0.0088,0.5,0.0,0.5,1.0,1000000000,0,,,0
1450008911545681845,1140,1450008911453696148,/camera1,basic_shapes,8,1,0,-0.0768233484942,0.0471178375465,0.617399434105,0.0047254648681,0.993972380408,-0.108704029309,-0.0134168170717,0.044,0.044,0.0088,0.5,0.0,0.5,1.0,1000000000,0,,,0
1450008911640736368,1141,1450008911512383229,/camera1,basic_shapes,8,1,0,-0.0770512617461,0.0473385379476,0.619769717893,0.00586737825535,0.995637712665,-0.091922634797,-0.0148777755187,0.044,0.044,0.0088,0.5,0.0,0.5,1.0,1000000000,0,,,0
1450008911742513495,1142,1450008911646408821,/camera1,basic_shapes,8,1,0,-0.0770324964602,0.0473172965312,0.619442240638,0.00537347241841,0.995046405929,-0.098647497304,-0.0110655825506,0.044,0.044,0.0088,0.5,0.0,0.5,1.0,1000000000,0,,,0
1450008911843519561,1143,1450008911745877980,/camera1,basic_shapes,8,1,0,-0.0773154109039,0.047602250055,0.622475204785,0.00585361963329,0.997813833198,-0.0643551327018,-0.0138458047886,0.044,0.044,0.0088,0.5,0.0,0.5,1.0,1000000000,0,,,0
1450008911944768785,1144,1450008911867428409,/camera1,basic_shapes,8,1,0,-0.0773859251089,0.0476750655519,0.623184630142,0.00508115501366,0.998605325622,-0.0512322254103,-0.0116980588974,0.044,0.044,0.0088,0.5,0.0,0.5,1.0,1000000000,0,,,0
1450008912043952205,1145,1450008911970162397,/camera1,basic_shapes,8,1,0,-0.0774061642275,0.0476930343857,0.623366963216,0.00462515981144,0.998769242733,-0.0483381051743,-0.0101012501732,0.044,0.044,0.0088,0.5,0.0,0.5,1.0,1000000000,0,,,0
1450008912145484962,1146,1450008912046393513,/camera1,basic_shapes,8,1,0,-0.0773306520742,0.0476793295526,0.622960822114,0.00822337751994,0.997612362333,-0.0675084399455,-0.0120233571794,0.044,0.044,0.0088,0.5,0.0,0.5,1.0,1000000000,0,,,0
1450008912244152948,1147,1450008912134943396,/camera1,basic_shapes,8,1,0,-0.0765251609754,0.0473777631491,0.619573529775,0.00930461816564,0.993466150792,-0.106840388928,0.0390328400746,0.044,0.044,0.0088,0.5,0.0,0.5,1.0,1000000000,0,,,0
1450008912344754242,1148,1450008912239285168,/camera1,basic_shapes,8,1,0,-0.076430047671,0.0472926473973,0.618996411356,0.00963372877006,0.993203656007,-0.106417070654,0.0461421286645,0.044,0.044,0.0088,0.5,0.0,0.5,1.0,1000000000,0,,,0
1450008912443948268,1149,1450008912344042424,/camera1,basic_shapes,8,1,0,-0.0758325262124,0.0469556519954,0.61537193241,0.00838141887673,0.992451209963,-0.114852113167,0.042182220922,0.044,0.044,0.0088,0.5,0.0,0.5,1.0,1000000000,0,,,0
1450008912545112152,1150,1450008912449276654,/camera1,basic_shapes,8,1,0,-0.0757536789631,0.0468938695326,0.61473534923,0.00899649453099,0.992782800853,-0.114854588282,0.0333136153476,0.044,0.044,0.0088,0.5,0.0,0.5,1.0,1000000000,0,,,0
1450008912644865359,1151,1450008912568458509,/camera1,basic_shapes,8,1,0,-0.075647196739,0.0468719532756,0.614070153573,0.00856252482163,0.992022310812,-0.122131605142,0.0300381265244,0.044,0.044,0.0088,0.5,0.0,0.5,1.0,1000000000,0,,,0
1450008912744818398,1152,1450008912650086165,/camera1,basic_shapes,8,1,0,-0.0756041271777,0.0468379170807,0.613644667282,0.00942362637132,0.991973380047,-0.123801420806,0.0239419454313,0.044,0.044,0.0088,0.5,0.0,0.5,1.0,1000000000,0,,,0
1450008912843953221,1153,1450008912744682955,/camera1,basic_shapes,8,1,0,-0.0755897343053,0.0468781829331,0.613806272081,0.00791006029226,0.991070975212,-0.131177462813,0.0225438747533,0.044,0.044,0.0088,0.5,0.0,0.5,1.0,1000000000,0,,,0
1450008912943637508,1154,1450008912772198413,/camera1,basic_shapes,8,1,0,-0.07559611128,0.0468433667044,0.613774250342,0.00796222633972,0.99179617438,-0.125351589813,0.0237472181117,0.044,0.044,0.0088,0.5,0.0,0.5,1.0,1000000000,0,,,0
1450008913043780100,1155,1450008912945409234,/camera1,basic_shapes,8,1,0,-0.0754226515939,0.0467359729654,0.612340449836,0.00958766565527,0.990980950704,-0.133530299129,0.00587292289609,0.044,0.044,0.0088,0.5,0.0,0.5,1.0,1000000000,0,,,0
1450008913144870815,1156,1450008913043845965,/camera1,basic_shapes,8,1,0,-0.0755594788762,0.0468549192372,0.613512022767,0.00856595076261,0.991030120963,-0.132059045757,0.01861000444,0.044,0.044,0.0088,0.5,0.0,0.5,1.0,1000000000,0,,,0
1450008913243126932,1157,1450008913169745561,/camera1,basic_shapes,8,1,0,-0.075570235907,0.0468753170903,0.613803807179,0.00722102638465,0.990998810859,-0.13236520254,0.0186726219309,0.044,0.044,0.0088,0.5,0.0,0.5,1.0,1000000000,0,,,0
1450008913340636880,1158,1450008913243350878,/camera1,basic_shapes,8,1,0,-0.0755160662256,0.0467842710894,0.613406016318,0.00648576445576,0.991880290393,-0.12628470672,0.0135498058474,0.044,0.044,0.0088,0.5,0.0,0.5,1.0,1000000000,0,,,0
1450008913441872845,1159,1450008913341726927,/camera1,basic_shapes,8,1,0,-0.0753869359072,0.0467555062178,0.612657282982,0.00783905317072,0.990865398715,-0.134555641405,-0.00436923794728,0.044,0.044,0.0088,0.5,0.0,0.5,1.0,1000000000,0,,,0
1450008913541378989,1160,1450008913476318267,/camera1,basic_shapes,8,1,0,-0.0755141339456,0.0469093451815,0.614434494997,0.0057077576896,0.991367193918,-0.130844944263,-0.00617323955623,0.044,0.044,0.0088,0.5,0.0,0.5,1.0,1000000000,0,,,0
1450008913643863936,1161,1450008913503981576,/camera1,basic_shapes,8,1,0,-0.0755053063803,0.0469432030353,0.61471104615,0.00606303628901,0.991259928679,-0.131107967452,-0.0133302009465,0.044,0.044,0.0088,0.5,0.0,0.5,1.0,1000000000,0,,,0
1450008913741053081,1162,1450008913641232231,/camera1,basic_shapes,8,1,0,-0.0757183658018,0.0471568861648,0.617131220863,0.00608215004174,0.992501491537,-0.121249356931,-0.014226390687,0.044,0.044,0.0088,0.5,0.0,0.5,1.0,1000000000,0,,,0
1450008913841708034,1163,1450008913769884899,/camera1,basic_shapes,8,1,0,-0.0760796819055,0.0474748152237,0.621129093796,0.0076267373754,0.996775336932,-0.0772503272098,-0.020326030305,0.044,0.044,0.0088,0.5,0.0,0.5,1.0,1000000000,0,,,0
1450008913941816513,1164,1450008913840451381,/camera1,basic_shapes,8,1,0,-0.0763216850708,0.047711535753,0.623349938009,0.00658091253445,0.997436484648,-0.0703756468542,-0.0111543270941,0.044,0.044,0.0088,0.5,0.0,0.5,1.0,1000000000,0,,,0
1450008914043854547,1165,1450008913939786106,/camera1,basic_shapes,8,1,0,-0.0762059798011,0.0475994967598,0.622438169656,0.00668202691468,0.997928018954,-0.0614484600403,-0.0178635455912,0.044,0.044,0.0088,0.5,0.0,0.5,1.0,1000000000,0,,,0
1450008914144113395,1166,1450008914072560954,/camera1,basic_shapes,8,1,0,-0.076070719348,0.0475606223256,0.621977500999,0.00917704943109,0.997899030318,-0.0631385113523,-0.011262124049,0.044,0.044,0.0088,0.5,0.0,0.5,1.0,1000000000,0,,,0
1450008914244443900,1167,1450008914103144191,/camera1,basic_shapes,8,1,0,-0.076059519194,0.0475633012098,0.621867272723,0.00893588829448,0.997210202076,-0.0729983711502,-0.0127749984614,0.044,0.044,0.0088,0.5,0.0,0.5,1.0,1000000000,0,,,0
1450008914345103518,1168,1450008914245145964,/camera1,basic_shapes,8,1,0,-0.0761124996392,0.0476708896079,0.622984525211,0.00815035965484,0.998739152983,-0.0492556044225,0.00524989236499,0.044,0.044,0.0088,0.5,0.0,0.5,1.0,1000000000,0,,,0
1450008914445292504,1169,1450008914336392214,/camera1,basic_shapes,8,1,0,-0.0759339094333,0.047646225749,0.622700035824,0.00697941288052,0.995791676374,-0.0840243871918,0.0359183437467,0.044,0.044,0.0088,0.5,0.0,0.5,1.0,1000000000,0,,,0
1450008914545002347,1170,1450008914469740232,/camera1,basic_shapes,8,1,0,-0.0749398665707,0.047100092598,0.616649808977,0.00824139249111,0.991588049195,-0.118462575804,0.05149600254,0.044,0.044,0.0088,0.5,0.0,0.5,1.0,1000000000,0,,,0
1450008914644708682,1171,1450008914567202477,/camera1,basic_shapes,8,1,0,-0.0745462667626,0.0468843063933,0.613881849476,0.00920930898906,0.991307322602,-0.128299243316,0.0276457039785,0.044,0.044,0.0088,0.5,0.0,0.5,1.0,1000000000,0,,,0
1450008914746023174,1172,1450008914669490285,/camera1,basic_shapes,8,1,0,-0.0745339322423,0.04717942894,0.614258962969,-0.00382531581017,0.996399912345,0.0532563743598,0.065850893905,0.044,0.044,0.0088,0.5,0.0,0.5,1.0,1000000000,0,,,0
1450008914843719379,1173,1450008914702778859,/camera1,basic_shapes,8,1,0,-0.0745154619071,0.0467971669605,0.61378700942,0.00722974199925,0.992680769305,-0.118239593307,0.0234950985879,0.044,0.044,0.0088,0.5,0.0,0.5,1.0,1000000000,0,,,0
1450008914945365045,1174,1450008914841328394,/camera1,basic_shapes,8,1,0,-0.0744384204164,0.0468741016894,0.613604241435,0.00713462503673,0.990469678624,-0.137249031549,0.00903416793314,0.044,0.044,0.0088,0.5,0.0,0.5,1.0,1000000000,0,,,0
1450008915045050795,1175,1450008914934909348,/camera1,basic_shapes,8,1,0,-0.0743997791364,0.0468731215294,0.61359908896,0.00709419853992,0.990421435569,-0.137894499314,-0.000399212895553,0.044,0.044,0.0088,0.5,0.0,0.5,1.0,1000000000,0,,,0
1450008915144765671,1176,1450008915066506919,/camera1,basic_shapes,8,1,0,-0.0744864656959,0.0470465632592,0.615722456759,0.00717356736042,0.991437068013,-0.128799544138,-0.0202918094468,0.044,0.044,0.0088,0.5,0.0,0.5,1.0,1000000000,0,,,0
1450008915243808058,1177,1450008915164697406,/camera1,basic_shapes,8,1,0,-0.0746696215363,0.0471984723243,0.617534062263,0.00665821849572,0.992586205006,-0.120368751749,-0.0154808708122,0.044,0.044,0.0088,0.5,0.0,0.5,1.0,1000000000,0,,,0
1450008915344268568,1178,1450008915265388534,/camera1,basic_shapes,8,1,0,-0.0747898408285,0.0472890176574,0.618619965962,0.00564263032515,0.993213617512,-0.11583467088,-0.00878633788164,0.044,0.044,0.0088,0.5,0.0,0.5,1.0,1000000000,0,,,0
1450008915443903409,1179,1450008915345335933,/camera1,basic_shapes,8,1,0,-0.0749738722146,0.0474901373794,0.620674134806,0.00722971430763,0.994343315061,-0.105262678179,-0.0122012952658,0.044,0.044,0.0088,0.5,0.0,0.5,1.0,1000000000,0,,,0
1450008915545134296,1180,1450008915432208065,/camera1,basic_shapes,8,1,0,-0.0749704010132,0.0474458586799,0.620745601594,0.00634668845494,0.995628162195,-0.0921442847429,-0.0139180810348,0.044,0.044,0.0088,0.5,0.0,0.5,1.0,1000000000,0,,,0
1450008915643565658,1181,1450008915514655261,/camera1,basic_shapes,8,1,0,-0.0752948627283,0.047779371366,0.623980348838,0.00627986389721,0.99728310173,-0.0729824419719,-0.00778084033962,0.044,0.044,0.0088,0.5,0.0,0.5,1.0,1000000000,0,,,0
1450008915744178212,1182,1450008915632085460,/camera1,basic_shapes,8,1,0,-0.075353275255,0.047842023678,0.624587971535,0.00620649959701,0.997920224803,-0.0637158994922,-0.00754906909394,0.044,0.044,0.0088,0.5,0.0,0.5,1.0,1000000000,0,,,0
1450008915844134013,1183,1450008915747614055,/camera1,basic_shapes,8,1,0,-0.0751511798628,0.0477327883587,0.623379178811,0.00850510506899,0.997072147465,-0.0756638548458,-0.00705528227568,0.044,0.044,0.0088,0.5,0.0,0.5,1.0,1000000000,0,,,0
1450008915945107987,1184,1450008915872441477,/camera1,basic_shapes,8,1,0,-0.0743268753994,0.0473326979735,0.619583540399,0.00741800461537,0.993571243034,-0.101492134658,0.0496034759565,0.044,0.044,0.0088,0.5,0.0,0.5,1.0,1000000000,0,,,0
1450008916040783013,1185,1450008915933114640,/camera1,basic_shapes,8,1,0,-0.0736826755469,0.0469659804258,0.614993331269,0.0103580858768,0.99229997238,-0.122006211567,0.0186536648279,0.044,0.044,0.0088,0.5,0.0,0.5,1.0,1000000000,0,,,0
1450008916140417250,1186,1450008916014877173,/camera1,basic_shapes,8,1,0,-0.073443255335,0.0472511581353,0.614187639506,-0.00419852028138,0.995890239475,0.0617449360714,0.0661253825296,0.044,0.044,0.0088,0.5,0.0,0.5,1.0,1000000000,0,,,0
1450008916241570240,1187,1450008916145346269,/camera1,basic_shapes,8,1,0,-0.0733675126082,0.0468036397016,0.61291171348,0.0108773967202,0.99104468272,-0.132184596936,0.0154709865623,0.044,0.044,0.0088,0.5,0.0,0.5,1.0,1000000000,0,,,0
1450008916342297538,1188,1450008916243578664,/camera1,basic_shapes,8,1,0,-0.0735065150572,0.0469515574747,0.614348579421,0.0082292721671,0.990494735852,-0.132227739817,0.0369902980793,0.044,0.044,0.0088,0.5,0.0,0.5,1.0,1000000000,0,,,0
1450008916440596657,1189,1450008916344980320,/camera1,basic_shapes,8,1,0,-0.0734480193353,0.0468901566097,0.613712639803,0.0096752404929,0.990779398816,-0.132711637139,0.0254989013666,0.044,0.044,0.0088,0.5,0.0,0.5,1.0,1000000000,0,,,0
1450008916544608052,1190,1450008916444073075,/camera1,basic_shapes,8,1,0,-0.0734436548965,0.0472350669139,0.6141885877,-0.00412156682564,0.996001192009,0.0601658420492,0.0659144115738,0.044,0.044,0.0088,0.5,0.0,0.5,1.0,1000000000,0,,,0
1450008916640051756,1191,1450008916575143857,/camera1,basic_shapes,8,1,0,-0.073442755056,0.0468744099246,0.613657847467,0.00964320016756,0.99100073612,-0.131210273064,0.0246660483741,0.044,0.044,0.0088,0.5,0.0,0.5,1.0,1000000000,0,,,0
1450008916743574512,1192,1450008916601338050,/camera1,basic_shapes,8,1,0,-0.0734834105464,0.0469675786581,0.61447571103,0.00668253916429,0.990262193254,-0.136076167783,0.0286253182107,0.044,0.044,0.0088,0.5,0.0,0.5,1.0,1000000000,0,,,0
1450008916843278690,1193,1450008916733395061,/camera1,basic_shapes,8,1,0,-0.073245244613,0.0467183976507,0.612253971184,0.00912458956669,0.990860974409,-0.134553635234,0.00256719749323,0.044,0.044,0.0088,0.5,0.0,0.5,1.0,1000000000,0,,,0
1450008916939738796,1194,1450008916841403313,/camera1,basic_shapes,8,1,0,-0.0734255072147,0.0469694498751,0.61441486251,0.00567129342791,0.990014288604,-0.140222710365,0.0133092557482,0.044,0.044,0.0088,0.5,0.0,0.5,1.0,1000000000,0,,,0
