%time,field.header.seq,field.header.stamp,field.header.frame_id,field.pose.pose.position.x,field.pose.pose.position.y,field.pose.pose.position.z,field.pose.pose.orientation.x,field.pose.pose.orientation.y,field.pose.pose.orientation.z,field.pose.pose.orientation.w,field.pose.covariance0,field.pose.covariance1,field.pose.covariance2,field.pose.covariance3,field.pose.covariance4,field.pose.covariance5,field.pose.covariance6,field.pose.covariance7,field.pose.covariance8,field.pose.covariance9,field.pose.covariance10,field.pose.covariance11,field.pose.covariance12,field.pose.covariance13,field.pose.covariance14,field.pose.covariance15,field.pose.covariance16,field.pose.covariance17,field.pose.covariance18,field.pose.covariance19,field.pose.covariance20,field.pose.covariance21,field.pose.covariance22,field.pose.covariance23,field.pose.covariance24,field.pose.covariance25,field.pose.covariance26,field.pose.covariance27,field.pose.covariance28,field.pose.covariance29,field.pose.covariance30,field.pose.covariance31,field.pose.covariance32,field.pose.covariance33,field.pose.covariance34,field.pose.covariance35
1450008892132255993,2,1450008889711000000,camera,0.915252963424,-0.202219229067,3.32733043126,0.734415947403,0.0803085134937,0.66843764043,0.0858771198681,0.00209238421455,0.000373666069322,0.000783186164227,0.000317259393553,0.00110669396515,0.000661537624786,0.000373666069322,0.00172760879503,0.000821875327903,0.000850034998698,0.000358859534447,0.000788337457235,0.000783186164227,0.000821875327903,0.00180457970455,0.000456115857424,0.000323207948549,0.000441893422092,0.000317259393553,0.000850034998698,0.000456115857424,0.000462624695496,0.000109387046385,0.000218698060096,0.00110669396515,0.000358859534447,0.000323207948549,0.000109387046385,0.000621040552907,0.000424535834062,0.000661537624786,0.000788337457235,0.000441893422092,0.000218698060096,0.000424535834062,0.000734882372875
1450008892299886636,3,1450008889954000000,camera,0.915143149986,-0.202124465719,3.32732965554,0.734424543611,0.080352447722,0.668419722134,0.0859019729098,0.002034925938,0.000330115757062,0.000807647581135,0.000326626043195,0.00107472618198,0.000654694942183,0.000330115757062,0.00167538880908,0.000838896249814,0.000823560224906,0.00034848848004,0.000775879827218,0.000807647581135,0.000838896249814,0.00178711797526,0.000463066057221,0.000297706909166,0.00044366640708,0.000326626043195,0.000823560224906,0.000463066057221,0.000449505625425,0.000114824134708,0.00021086446118,0.00107472618198,0.00034848848004,0.000297706909166,0.000114824134708,0.000603277188488,0.000420594801353,0.000654694942183,0.000775879827218,0.00044366640708,0.00021086446118,0.000420594801353,0.000728913041969
1450008892457673770,4,1450008890051000000,camera,0.915103670867,-0.20210060658,3.32778657682,0.734403039335,0.0803089608375,0.668439748885,0.0859706271666,0.00210203950383,0.000366630329553,0.000852404685499,0.000327141072307,0.00110810019897,0.000659305654147,0.000366630329553,0.00171673746842,0.000816334412472,0.000842413769602,0.000359182671427,0.000793954676286,0.000852404685499,0.000816334412472,0.0018670891681,0.000462738650698,0.000303210099601,0.0004457438939,0.000327141072307,0.000842413769602,0.000462738650698,0.000460479230768,0.000116918094628,0.000208000371935,0.00110810019897,0.000359182671427,0.000303210099601,0.000116918094628,0.000621661043373,0.000428707010896,0.000659305654147,0.000793954676286,0.0004457438939,0.000208000371935,0.000428707010896,0.000752513244493
1450008892595915649,5,1450008890271000000,camera,0.915109791443,-0.202258342746,3.32750616117,0.734446025453,0.0802915067217,0.668413346142,0.0858248701937,0.00206822821656,0.000371785796344,0.000833574585842,0.000316024860054,0.00109319092003,0.000647488574449,0.000371785796344,0.00170115543697,0.000808166727642,0.000836510866366,0.000359552168015,0.00079173555938,0.000833574585842,0.000808166727642,0.00182378193283,0.000457406993332,0.000296375587757,0.000440514082379,0.000316024860054,0.000836510866366,0.000457406993332,0.00045694340106,0.000107991323484,0.000218055580375,0.00109319092003,0.000359552168015,0.000296375587757,0.000107991323484,0.000614597943592,0.00042209072734,0.000647488574449,0.00079173555938,0.000440514082379,0.000218055580375,0.00042209072734,0.000742162765181
1450008892747748470,6,1450008890359000000,camera,0.915310553483,-0.202243452508,3.32812919937,0.73441417572,0.0802565196683,0.66845082446,0.0858382480674,0.00202958378364,0.000336549104578,0.000709568114736,0.000324615383646,0.00107976172622,0.000671001726988,0.000336549104578,0.00167884100303,0.000859975527812,0.000829773704787,0.000350626221618,0.000764770259919,0.000709568114736,0.000859975527812,0.0017165887404,0.000462187140465,0.000334918065781,0.000448818070647,0.000324615383646,0.000829773704787,0.000462187140465,0.000452104575035,0.000112235311209,0.000217870342638,0.00107976172622,0.000350626221618,0.000334918065781,0.000112235311209,0.000608007344478,0.000423588804208,0.000671001726988,0.000764770259919,0.000448818070647,0.000217870342638,0.000423588804208,0.000707561095754
1450008892888538540,7,1450008890468000000,camera,0.915066169541,-0.202032896872,3.32707517869,0.734422418821,0.0804178751138,0.668414899052,0.0858964424167,0.00203903345296,0.000345700100283,0.000748878778594,0.000312783291403,0.00108095104526,0.000645277304692,0.000345700100283,0.00169086662581,0.000817099912231,0.000834670205253,0.000346142154885,0.000770331567287,0.000748878778594,0.000817099912231,0.00174605932725,0.000448789790784,0.000320560065482,0.000433312697552,0.000312783291403,0.000834670205253,0.000448789790784,0.000454685554394,0.00010753382442,0.000217740151246,0.00108095104526,0.000346142154885,0.000320560065482,0.00010753382442,0.000607358484879,0.000412482733106,0.000645277304692,0.000770331567287,0.000433312697552,0.000217740151246,0.000412482733106,0.000714342487951
1450008893012981560,8,1450008890569000000,camera,0.915117942025,-0.201986347156,3.32776339112,0.734266808561,0.0804966781124,0.668595814703,0.0857448261967,0.00206618389605,0.000354849916471,0.0007581830033,0.000320502411445,0.00109365212977,0.000658237673707,0.000354849916471,0.00171546113339,0.000835303560397,0.000844232697905,0.000355757607071,0.000781205937405,0.0007581830033,0.000835303560397,0.00177065854293,0.00046057827316,0.000324391881861,0.000446562417145,0.000320502411445,0.000844232697905,0.00046057827316,0.000458732587358,0.000110170980242,0.000220166740051,0.00109365212977,0.000355757607071,0.000324391881861,0.000110170980242,0.000613898348007,0.000422984736035,0.000658237673707,0.000781205937405,0.000446562417145,0.000220166740051,0.000422984736035,0.000724743733993
1450008893144999935,9,1450008890689000000,camera,0.915113413734,-0.202140035779,3.32749817921,0.734311861268,0.0802636605777,0.668570154431,0.0857775250025,0.00209431510628,0.000369462529445,0.000797433684435,0.000307186132598,0.00110599155697,0.000634114627429,0.000369462529445,0.00175454608482,0.000800459537555,0.000863853232265,0.000355842115478,0.000801119956342,0.000797433684435,0.000800459537555,0.00180538879428,0.000451190485255,0.000310861532398,0.000434064787506,0.000307186132598,0.000863853232265,0.000451190485255,0.000468878975137,0.000101751528387,0.000230140238342,0.00110599155697,0.000355842115478,0.000310861532398,0.000101751528387,0.000619457183566,0.000413116906121,0.000634114627429,0.000801119956342,0.000434064787507,0.000230140238342,0.000413116906121,0.000738614983784
1450008893321838050,10,1450008890834000000,camera,0.915117116514,-0.202142327603,3.32712250232,0.734312138116,0.0803277812488,0.668571117175,0.0857075997522,0.00205242694514,0.000351481664417,0.00075420413085,0.000319673632031,0.00108860266763,0.000658167753385,0.000351481664417,0.00170190971827,0.000836327700237,0.000839295365706,0.000354156851959,0.000778840695432,0.00075420413085,0.000836327700237,0.0017566242745,0.000458949675629,0.000322553514177,0.000445431704611,0.000319673632031,0.000839295365706,0.000458949675629,0.000456986958705,0.000109649788281,0.000220821446178,0.00108860266763,0.000354156851959,0.000322553514177,0.000109649788281,0.00061208187245,0.000421733756924,0.000658167753385,0.000778840695432,0.000445431704611,0.000220821446178,0.000421733756924,0.000721935373698
1450008893467790422,11,1450008890906000000,camera,0.915149423204,-0.20210175721,3.32680099582,0.734328344512,0.0803052402238,0.668546311418,0.0857833336278,0.00204818910844,0.00036438134979,0.000751160142886,0.000307043884051,0.00108727303684,0.000639584419582,0.00036438134979,0.0017082255916,0.000809910091768,0.000843640423643,0.000354415514925,0.000781474509777,0.000751160142886,0.000809910091768,0.00174558964245,0.000449956261453,0.000319171789309,0.000436236038154,0.000307043884051,0.000843640423643,0.000449956261453,0.00045902456088,0.000101428772522,0.000227524315749,0.00108727303684,0.000354415514925,0.000319171789309,0.000101428772522,0.000611671965123,0.000413626200849,0.000639584419582,0.000781474509777,0.000436236038154,0.000227524315749,0.000413626200849,0.00071863206042
1450008893624440431,12,1450008890975000000,camera,0.915065321621,-0.202001121512,3.32744603849,0.734351295332,0.0802475797452,0.668520234588,0.0858440267873,0.0020851455928,0.000352337822485,0.000812675989791,0.000327459053368,0.00110259769952,0.000665172356796,0.000352337822485,0.0017217904673,0.000845453568556,0.000847140463992,0.000358726792104,0.000795683272505,0.000812675989791,0.000845453568556,0.00181684622112,0.000468093354454,0.000308787179502,0.000451654617699,0.000327459053368,0.000847140463992,0.000468093354454,0.000461795765903,0.000113522781759,0.000220672232636,0.00110259769952,0.000358726792104,0.000308787179502,0.000113522781759,0.000619082178747,0.000428355886716,0.000665172356796,0.000795683272505,0.000451654617699,0.000220672232636,0.000428355886716,0.000743213085507
1450008893855243320,13,1450008891071000000,camera,0.915010794266,-0.202027598604,3.32753072942,0.734253769058,0.080444636098,0.66860244085,0.0858535918685,0.00207058260724,0.000372908807131,0.000788219197148,0.000301647313527,0.00109113952916,0.000630012160915,0.000372908807131,0.00172222289452,0.00078201095666,0.000846175703046,0.000350440730948,0.000781598963138,0.000788219197148,0.00078201095666,0.00178393602408,0.000440946919031,0.000304223671576,0.000424097883782,0.000301647313527,0.000846175703046,0.000440946919031,0.00045852008214,0.000101246233644,0.000221524797221,0.00109113952916,0.000350440730948,0.000304223671576,0.000101246233644,0.000609725600402,0.000407919329313,0.000630012160915,0.000781598963138,0.000424097883782,0.000221524797221,0.000407919329313,0.000723147369457
1450008893996615434,14,1450008891152000000,camera,0.91519499481,-0.202072740353,3.32751188853,0.734235439066,0.0805783674007,0.668600885128,0.0858970496113,0.0020769443835,0.000327046196454,0.0007536005485,0.000326171033989,0.00109717600481,0.000666691822761,0.000327046196454,0.00172361174521,0.000867460381731,0.000848207668674,0.000349317074754,0.000778665911647,0.0007536005485,0.000867460381731,0.00176190192518,0.00046872092219,0.000320215618588,0.000445859364746,0.000326171033989,0.000848207668674,0.00046872092219,0.000459265226488,0.000111115544957,0.000224083725553,0.00109717600481,0.000349317074754,0.000320215618588,0.000111115544957,0.000613553958638,0.000420928092362,0.000666691822761,0.000778665911647,0.000445859364746,0.000224083725553,0.000420928092362,0.000716743814629
1450008894145472577,15,1450008891233000000,camera,0.915097270247,-0.202030754486,3.32821210267,0.734204999447,0.080342898172,0.668671863423,0.0858252676478,0.00206254494073,0.000345140445191,0.000760786990594,0.000318860933572,0.00109225281459,0.000653505352481,0.000345140445191,0.00171544587288,0.00083008143488,0.000845738830908,0.00035013340271,0.000781561219279,0.000760786990594,0.00083008143488,0.00176703617036,0.000455707059727,0.00032192567848,0.000441008813256,0.000318860933572,0.000845738830908,0.000455707059727,0.000460269266125,0.000110294499844,0.000220256204976,0.00109225281459,0.00035013340271,0.00032192567848,0.000110294499844,0.000613269152741,0.000418450294314,0.000653505352481,0.000781561219279,0.000441008813256,0.000220256204976,0.000418450294314,0.000725168670181
1450008894273470283,16,1450008891307000000,camera,0.915169881242,-0.202026803059,3.32737272384,0.734294766397,0.0803845849395,0.668563227282,0.0858645775193,0.00206872367239,0.000393903190624,0.000855109245709,0.000304124312189,0.00108969524133,0.000627192319049,0.000393903190624,0.00170429201684,0.000761887588789,0.000835267022031,0.00036091648478,0.000793320235696,0.000855109245709,0.000761887588789,0.00183801076827,0.000444358459794,0.000283256854706,0.00043005673049,0.000304124312189,0.000835267022031,0.000444358459794,0.000455412008389,0.000103201950224,0.000216215441809,0.00108969524133,0.00036091648478,0.000283256854706,0.000103201950224,0.000611262494133,0.000415673143323,0.000627192319049,0.000793320235696,0.00043005673049,0.000216215441809,0.000415673143323,0.000744909712001
1450008894451360410,17,1450008891374000000,camera,0.915106243381,-0.201865356201,3.32758464664,0.734339768549,0.0803999621083,0.668506774688,0.085904846293,0.00212552682967,0.000342380264082,0.00081055466864,0.000327414579315,0.00112069528051,0.000660979610631,0.000342380264082,0.00175853080107,0.000847088732741,0.00086486880239,0.000353973087268,0.000798118691096,0.00081055466864,0.000847088732741,0.00183708734421,0.000468721666663,0.000316537459958,0.000445652184298,0.000327414579315,0.00086486880239,0.000468721666663,0.00046970191799,0.000113370600839,0.000222933221558,0.00112069528051,0.000353973087268,0.000316537459958,0.000113370600839,0.000626791830382,0.000423755471589,0.000660979610631,0.000798118691096,0.000445652184298,0.000222933221558,0.000423755471589,0.000741806370534
1450008894679688257,18,1450008891443000000,camera,0.914959270034,-0.201998196204,3.32644312043,0.734347916936,0.0802580132546,0.668532848041,0.0857649071042,0.00210335732425,0.000352183647342,0.000751388457743,0.000326485978938,0.00111281250617,0.000673152800487,0.000352183647342,0.00173470713629,0.000853077453977,0.000854474182621,0.000355329508755,0.000780720765913,0.000751388457743,0.000853077453977,0.00178844961282,0.000465619727078,0.000335678690136,0.000447350085781,0.000326485978938,0.000854474182621,0.000465619727078,0.000463947173962,0.000113611588267,0.000218402809251,0.00111281250617,0.000355329508755,0.000335678690136,0.000113611588267,0.000623363570192,0.000426844121447,0.000673152800487,0.000780720765913,0.000447350085781,0.000218402809251,0.000426844121447,0.000724518680244
1450008894945862919,19,1450008891568000000,camera,0.915067513064,-0.202060253188,3.32789981552,0.734320800768,0.0803537068507,0.668538416276,0.0858640164344,0.00205138083323,0.000353498359159,0.000799518546178,0.000323381921117,0.00108464140607,0.000658322441968,0.000353498359159,0.00169272143,0.000833521709296,0.000831783878192,0.000356690707649,0.000783076455485,0.000799518546178,0.000833521709296,0.00179086915547,0.000462679018922,0.000305992137637,0.000447728833496,0.000323381921117,0.000831783878192,0.000462679018922,0.000453438368538,0.000112146814015,0.0002156332264,0.00108464140607,0.000356690707649,0.000305992137637,0.000112146814015,0.000609443976048,0.000425080089905,0.000658322441968,0.000783076455485,0.000447728833496,0.0002156332264,0.000425080089905,0.000733156966568
1450008895526017216,20,1450008891670000000,camera,0.9148487994,-0.201800958222,3.32718231696,0.734397149575,0.0802144170869,0.668449139784,0.0860361639636,0.00207848998997,0.000332973213391,0.000752771831361,0.000331445439463,0.00110355652035,0.000674462051422,0.000332973213391,0.00171955945205,0.000867280227236,0.000849741020313,0.000353118106764,0.000784426451541,0.000752771831361,0.000867280227236,0.00177267502677,0.00046972814027,0.000331670984115,0.000454007867821,0.000331445439463,0.000849741020313,0.00046972814027,0.000463143065362,0.000115761751297,0.000221794703286,0.00110355652035,0.000353118106764,0.000331670984115,0.000115761751297,0.000620399012947,0.000427863326459,0.000674462051422,0.000784426451541,0.000454007867821,0.000221794703286,0.000427863326459,0.000727400285338
1450008895889666603,21,1450008891867000000,camera,0.914323991849,-0.201627934546,3.32655805548,0.734508114438,0.0801765080781,0.668337625151,0.085990558694,0.00202761466823,0.000341391417597,0.000784104188052,0.000314781849751,0.00107411842394,0.00064031049877,0.000341391417597,0.00167043536637,0.000812746813697,0.000824177471326,0.000345816252774,0.000769630137838,0.000784104188052,0.000812746813697,0.00176573215545,0.000451250091334,0.000305377273077,0.000433970843323,0.000314781849751,0.000824177471326,0.000451250091334,0.000450161176144,0.000108792268908,0.000214604392638,0.00107411842394,0.000345816252774,0.000305377273077,0.000108792268908,0.000604049052061,0.000412493987257,0.00064031049877,0.000769630137838,0.000433970843323,0.000214604392638,0.000412493987257,0.00071848903236
1450008896157265781,22,1450008891976000000,camera,0.914899916353,-0.201630040308,3.32851630065,0.734505285797,0.0802154981337,0.668334349356,0.0860038165868,0.00203951353476,0.000354037045528,0.000768968495669,0.00031048037315,0.00108319840998,0.000636457460978,0.000354037045528,0.00168543299586,0.000799729371798,0.000833426004655,0.000348580447872,0.000774114218072,0.000768968495669,0.000799729371798,0.00176464868155,0.000446725659861,0.000318087585107,0.000433269566647,0.00031048037315,0.000833426004655,0.000446725659861,0.000455746554545,0.000106805101549,0.000217485773886,0.00108319840998,0.000348580447872,0.000318087585107,0.000106805101549,0.000610480769131,0.000412283046962,0.000636457460978,0.000774114218072,0.000433269566647,0.000217485773886,0.000412283046962,0.000720803444493
1450008896587255799,23,1450008892074000000,camera,0.914677324763,-0.201330689965,3.3271828792,0.734557428279,0.080104240614,0.668273181072,0.0861373940629,0.00210395779337,0.000333428093955,0.000778926460934,0.000338857092415,0.00111603685829,0.000681514747144,0.000333428093955,0.00173702444299,0.000881738908966,0.000857430788182,0.000359100247669,0.000795436060872,0.000778926460934,0.000881738908966,0.00180559497802,0.000480758867543,0.000329270306576,0.00046256907704,0.000338857092415,0.000857430788182,0.000480758867543,0.000467357432962,0.000118371230981,0.000223729417246,0.00111603685829,0.000359100247669,0.000329270306576,0.000118371230981,0.000627230375447,0.000434761939437,0.000681514747144,0.000795436060872,0.00046256907704,0.000223729417246,0.000434761939437,0.000739009612109
1450008896769600546,24,1450008892208000000,camera,0.914636695693,-0.201557655624,3.32697703695,0.734444031267,0.0800794186133,0.668421231881,0.0859785346552,0.00205355631015,0.000353886681436,0.000789037136191,0.000309382132772,0.00108902742859,0.000628242276945,0.000353886681436,0.00171270823102,0.000793980069573,0.000846318712349,0.000349901580381,0.000789120571838,0.000789037136192,0.000793980069573,0.00178357514002,0.000447401733515,0.000312129189257,0.000434262705765,0.000309382132772,0.000846318712349,0.000447401733515,0.000462364364011,0.000105548292674,0.000222959276981,0.00108902742859,0.000349901580381,0.000312129189257,0.000105548292674,0.000613152585622,0.000411002631036,0.000628242276945,0.000789120571838,0.000434262705765,0.000222959276981,0.000411002631036,0.000733321257911
1450008897198139279,25,1450008892309000000,camera,0.914767969478,-0.201601786697,3.32757495926,0.734411929761,0.0803770031436,0.668417451503,0.086004449407,0.00205416923402,0.000347880644727,0.000756705738711,0.000311856410597,0.00108881977245,0.000642341599405,0.000347880644727,0.00170379463391,0.000809976593097,0.000841227062597,0.000346347123012,0.000774557369518,0.000756705738711,0.000809976593097,0.00176061293666,0.00044710489883,0.000322374994528,0.000432401454448,0.000311856410597,0.000841227062597,0.00044710489883,0.000458471394751,0.000107530791636,0.000218531176086,0.00108881977245,0.000346347123012,0.000322374994528,0.000107530791636,0.00061203833007,0.000412209681646,0.000642341599405,0.000774557369518,0.000432401454448,0.000218531176086,0.000412209681646,0.000718980709596
1450008897888964441,26,1450008892379000000,camera,0.914333299766,-0.201566383218,3.32619179371,0.734364443066,0.0804884084351,0.668449651186,0.0860554745322,0.0020770170616,0.000330922055815,0.000812481686151,0.000325457402517,0.0010966329155,0.000654365266735,0.000330922055815,0.00171290104608,0.000842587964417,0.000843376696874,0.00034901707693,0.000786022282801,0.000812481686151,0.000842587964417,0.00180652544547,0.000465311795434,0.000301079125713,0.000442166163081,0.000325457402517,0.000843376696874,0.000465311795434,0.00045917432643,0.000112638207723,0.000219951615513,0.0010966329155,0.00034901707693,0.000301079125713,0.000112638207723,0.000614430393029,0.000419497012621,0.000654365266735,0.000786022282801,0.000442166163081,0.000219951615513,0.000419497012621,0.000732209465673
1450008898587801120,27,1450008892485000000,camera,0.915035987956,-0.201336740793,3.32778643692,0.734393482555,0.0803273092146,0.668442184954,0.0860161702715,0.00207401441539,0.000360477612409,0.000752938128349,0.000314043499779,0.0011035537698,0.000655274778442,0.000360477612409,0.00171997309705,0.000830141434784,0.000851708367193,0.000355589498808,0.000787158539511,0.000752938128349,0.000830141434784,0.0017668838648,0.000456035889151,0.000330516452789,0.000441543386322,0.000314043499779,0.000851708367193,0.000456035889151,0.000464886347462,0.000105299407519,0.000227833585064,0.0011035537698,0.000355589498808,0.000330516452789,0.000105299407519,0.00062207571472,0.000419660639813,0.000655274778442,0.000787158539511,0.000441543386322,0.000227833585064,0.000419660639813,0.000725890169417
1450008899848826311,28,1450008892607000000,camera,0.915179134169,-0.201695605002,3.32840984633,0.734290444763,0.0804173797931,0.668549434288,0.0859781464643,0.00206806332558,0.000360789907674,0.000774009457059,0.000314815694052,0.00109475812848,0.000650094904493,0.000360789907674,0.00171366444276,0.000816928465243,0.000844373379033,0.000353599834511,0.000782781080192,0.000774009457059,0.000816928465243,0.00177957040639,0.00045320837289,0.000318406734379,0.000438471683717,0.000314815694052,0.000844373379033,0.00045320837289,0.000459647521329,0.000107978405724,0.000220153429571,0.00109475812848,0.000353599834511,0.000318406734379,0.000107978405724,0.00061467270203,0.000418311175663,0.000650094904493,0.000782781080192,0.000438471683717,0.000220153429571,0.000418311175663,0.000726897076632
1450008902852538821,29,1450008892708000000,camera,0.915075379037,-0.201693506849,3.32741775277,0.734308815651,0.0804248920958,0.66852629067,0.0859941781284,0.00205228852084,0.000354613870671,0.000750677541521,0.000308904607519,0.00108921733717,0.000641453484176,0.000354613870671,0.00170986074722,0.000806029800818,0.000845044455492,0.000348097676389,0.000779331848242,0.000750677541521,0.000806029800818,0.001755445036,0.00044474300341,0.000325125167888,0.000432463620351,0.000308904607519,0.000845044455492,0.00044474300341,0.000460813833677,0.000105617679887,0.000221502976076,0.00108921733717,0.000348097676389,0.000325125167888,0.000105617679887,0.000612938932109,0.000412120543574,0.000641453484176,0.000779331848242,0.000432463620351,0.000221502976076,0.000412120543574,0.00072193751188
1450008908743353428,30,1450008892797000000,camera,0.915414423417,-0.201620027135,3.32788631646,0.734386269228,0.0804618494948,0.668444516453,0.0859338511234,0.00205799037302,0.000347019792966,0.000763295437645,0.000323217299769,0.00108904543346,0.00065860370765,0.000347019792966,0.00171117406112,0.000848414107326,0.000841802101382,0.000356864544876,0.000782385098014,0.000763295437645,0.000848414107326,0.00176446244783,0.000467265660197,0.000317482732263,0.000450382191185,0.000323217299769,0.000841802101382,0.000467265660197,0.000456948516274,0.000109592440576,0.00022352343755,0.00108904543346,0.000356864544876,0.000317482732263,0.000109592440576,0.000611126695628,0.000423778047475,0.00065860370765,0.000782385098014,0.000450382191185,0.00022352343755,0.000423778047475,0.000723210688098
1450008910400148783,31,1450008892887000000,camera,0.915392559733,-0.201729324621,3.32820450291,0.734265346949,0.0805372596798,0.668583804096,0.0858128601907,0.0020566179092,0.000355887805662,0.000765535542952,0.000308906738281,0.00108936387895,0.000635907966177,0.000355887805662,0.00171255880023,0.000799767614735,0.000845117770206,0.000348572124555,0.000780607848775,0.000765535542952,0.000799767614735,0.00176953504742,0.000445976715499,0.00031972546681,0.000431500230736,0.000308906738281,0.000845117770206,0.000445976715499,0.000460340970461,0.000105587400655,0.000220617478712,0.00108936387895,0.000348572124555,0.00031972546681,0.000105587400655,0.00061199121696,0.000411117847084,0.000635907966177,0.000780607848775,0.000431500230736,0.000220617478712,0.000411117847084,0.000723908163454
1450008912846319340,32,1450008892987000000,camera,0.915431619738,-0.201764260684,3.32779446978,0.734390453611,0.0805129437981,0.668448276538,0.0858209130653,0.00205942001308,0.00036052425832,0.000720564833536,0.000312699903256,0.00109563395443,0.000649797588051,0.00036052425832,0.00171162718712,0.000816226743855,0.000846604377592,0.000353096438097,0.000775575926319,0.000720564833536,0.000816226743855,0.00174433921923,0.000449976332933,0.000340814733868,0.000439905546609,0.000312699903256,0.000846604377592,0.000449976332933,0.000461506715704,0.000107098008142,0.000221658408119,0.00109563395443,0.000353096438097,0.000340814733868,0.000107098008142,0.000617563888124,0.000417832800735,0.000649797588051,0.000775575926319,0.000439905546609,0.000221658408119,0.000417832800735,0.000716633630414
1450008925685503374,33,1450008893106000000,camera,0.915439950597,-0.201854503429,3.32724502491,0.734367903344,0.0805188434227,0.668463845908,0.085887048539,0.0020894300865,0.000335906823175,0.0007863231563,0.000337973006086,0.00110596588399,0.000676623321084,0.000335906823175,0.0017241776805,0.000874406629937,0.0008482932364,0.000360035841245,0.000790475930581,0.0007863231563,0.000874406629937,0.00180769232175,0.000480426747802,0.000324150831266,0.000462370849484,0.000337973006086,0.0008482932364,0.000480426747802,0.000461933343426,0.000118173067879,0.000219227049933,0.00110596588399,0.000360035841245,0.000324150831266,0.000118173067879,0.000621378360594,0.000434631968481,0.000676623321084,0.000790475930581,0.000462370849484,0.000219227049933,0.000434631968481,0.000737698203967
1450008928705292830,34,1450008893174000000,camera,0.915624403653,-0.201973705674,3.32774126081,0.734348552975,0.0805594355207,0.668488135311,0.0858253636174,0.00207660861484,0.000369104002987,0.000748596507802,0.000308425769654,0.00110189087776,0.000638554278935,0.000369104002987,0.00172502913042,0.00079078516796,0.000852207128274,0.000351975586703,0.000780624123214,0.000748596507801,0.00079078516796,0.00177855288653,0.000443690731386,0.000336867493228,0.000433265509358,0.000308425769654,0.000852207128274,0.000443690731386,0.000464692247427,0.000106740778584,0.000218491698578,0.00110189087776,0.000351975586703,0.000336867493228,0.000106740778584,0.000620003506344,0.000414180872428,0.000638554278935,0.000780624123214,0.000433265509358,0.000218491698578,0.000414180872428,0.000725300920871
1450008931322852484,35,1450008893241000000,camera,0.915396216485,-0.201751057921,3.32631039711,0.734429930008,0.0803558109892,0.66841174847,0.085914818607,0.00208319616513,0.000377041851435,0.00076174935676,0.000307407938992,0.00110509697575,0.000643727805514,0.000377041851435,0.00172968358864,0.000799394980691,0.000853806325289,0.000356957788917,0.000786751755808,0.000761749356759,0.000799394980691,0.00178348371813,0.000447899764387,0.000329854134247,0.000434880797558,0.000307407938992,0.000853806325289,0.000447899764387,0.000465086791515,0.000103508573281,0.000224160118246,0.00110509697575,0.000356957788917,0.000329854134247,0.000103508573281,0.000621807619245,0.000416889056519,0.000643727805514,0.000786751755808,0.000434880797558,0.000224160118246,0.000416889056519,0.000728118258195
1450008932208542911,36,1450008893309000000,camera,0.915889855023,-0.201986126246,3.32840834317,0.734355254703,0.0803533157033,0.668503126605,0.085844477194,0.00210638585464,0.000360990215471,0.00074160223902,0.000328349842325,0.00111534558126,0.000675003276635,0.000360990215471,0.00174653525452,0.000865444849477,0.000859653025461,0.000364236003261,0.000788012292782,0.00074160223902,0.000865444849477,0.00178198289708,0.000475351868879,0.000338589221884,0.000457913117415,0.000328349842325,0.000859653025461,0.000475351868879,0.00046553015758,0.000111317949172,0.000226407992096,0.00111534558126,0.000364236003261,0.000338589221884,0.000111317949172,0.000625035939982,0.000431933209048,0.000675003276635,0.000788012292782,0.000457913117415,0.000226407992096,0.000431933209048,0.000725133580448
1450008933518696703,37,1450008893376000000,camera,0.915757067573,-0.201847895716,3.32766125354,0.734369545989,0.0804067808131,0.668494281681,0.0857409755165,0.00209464844642,0.000343086313554,0.000811931450346,0.00032023892736,0.00110371689545,0.000643736209342,0.000343086313554,0.00174399558817,0.00083031454721,0.000857288823473,0.000352375793102,0.000796027251174,0.000811931450346,0.00083031454721,0.00181905702528,0.000464143450366,0.000304940296978,0.000441403651038,0.00032023892736,0.000857288823473,0.000464143450366,0.000465080594519,0.000108733395955,0.000225333112599,0.00110371689545,0.000352375793102,0.000304940296978,0.000108733395955,0.00061702443835,0.000416953224226,0.000643736209342,0.000796027251174,0.000441403651038,0.000225333112599,0.000416953224226,0.000737399659334
1450008934901599339,38,1450008893442000000,camera,0.915842093504,-0.201809726199,3.32821974857,0.734388894134,0.0803721509552,0.668468776533,0.085806551756,0.0020572249648,0.000406082030656,0.000784099259402,0.000298633522427,0.00108885116363,0.000643000181764,0.000406082030656,0.00169618218075,0.000774169516367,0.000833945901895,0.000362894146351,0.000779934308658,0.000784099259402,0.000774169516367,0.00178185006232,0.000439685120536,0.00031169141112,0.000429476182885,0.000298633522427,0.000833945901895,0.000439685120536,0.000454027508111,9.9171651628e-05,0.000218345611687,0.00108885116363,0.000362894146351,0.00031169141112,9.91716516279e-05,0.000611933969344,0.000417679323451,0.000643000181764,0.000779934308658,0.000429476182885,0.000218345611687,0.000417679323451,0.000726059730375
1450008950004888085,39,1450008893538000000,camera,0.915613001785,-0.201901600206,3.3265477569,0.734361005618,0.0804949103511,0.668504252252,0.0856536488241,0.00210946179374,0.000313951324953,0.000750672747075,0.000350132626599,0.00111880238067,0.000694912538814,0.000313951324953,0.00174137556651,0.000911613208171,0.000858968757776,0.000359097467951,0.000789273697215,0.000750672747075,0.000911613208171,0.00180091314429,0.000492478177379,0.000345132078139,0.000473452880545,0.000350132626599,0.000858968757776,0.000492478177379,0.000467434371357,0.000124087172826,0.000219851081276,0.00111880238067,0.000359097467951,0.000345132078139,0.000124087172826,0.000628388538749,0.000441041210998,0.000694912538814,0.000789273697215,0.000473452880545,0.000219851081276,0.000441041210998,0.000734106776159
1450008951317658940,40,1450008893660000000,camera,0.915739871858,-0.201619262347,3.32691034706,0.734357994268,0.0805614399386,0.668463803734,0.08593214618,0.00210706187742,0.000353337044322,0.000767688755934,0.000331853892654,0.001113374477,0.000681042134964,0.000353337044322,0.00174252048236,0.00087449426495,0.000856569049659,0.000361986543299,0.000790688025004,0.000767688755934,0.00087449426495,0.00179896446616,0.000477272107705,0.000328115832069,0.000458233617326,0.000331853892654,0.000856569049659,0.000477272107705,0.000464037881315,0.000113656414183,0.000223927697022,0.001113374477,0.000361986543299,0.000328115832069,0.000113656414183,0.000622858171813,0.000432950080931,0.000681042134964,0.000790688025004,0.000458233617326,0.000223927697022,0.000432950080931,0.000731235673343
1450008953073957535,41,1450008893795000000,camera,0.916028157248,-0.201824632012,3.32745273545,0.734375576906,0.0804255909701,0.66847334492,0.085834861753,0.00204825227104,0.000375118782325,0.000806828627776,0.000305946005136,0.00107974280135,0.000634897784673,0.000375118782325,0.00168826235472,0.000786962577603,0.000828470063478,0.000353667555526,0.000776238420776,0.000806828627776,0.000786962577603,0.00178771352187,0.00044561156209,0.000294247446423,0.000428659043931,0.000305946005136,0.000828470063478,0.00044561156209,0.000450174928321,0.000103444891139,0.000216127251523,0.00107974280135,0.000353667555526,0.000294247446423,0.000103444891139,0.000604458079428,0.000412291215268,0.000634897784673,0.000776238420776,0.000428659043931,0.000216127251523,0.000412291215268,0.000723073055755
1450008957571401099,42,1450008893927000000,camera,0.916193031486,-0.201943923785,3.32816628668,0.734294745206,0.08055914282,0.668551811872,0.0857900140687,0.00203627063548,0.000364755104104,0.000784142754651,0.000305544331022,0.00107297714762,0.000633016960828,0.000364755104104,0.0016820050204,0.00078698897027,0.000825511518869,0.000347583472657,0.000767558059164,0.000784142754651,0.00078698897027,0.00176674253123,0.000441503929876,0.000300117411584,0.000425598859095,0.000305544331022,0.000825511518869,0.000441503929876,0.000448024715664,0.000104760794274,0.000212744826062,0.00107297714762,0.000347583472657,0.000300117411584,0.000104760794274,0.000599848756332,0.00040842947879,0.000633016960828,0.000767558059164,0.000425598859095,0.000212744826062,0.00040842947879,0.000714706023944
1450008984229980182,43,1450008894009000000,camera,0.916210207202,-0.201553857878,3.32814956864,0.734328489992,0.0805533221642,0.66850324667,0.0858850409899,0.00206396611596,0.000351008332588,0.000762687594294,0.000309816778259,0.0010892488529,0.000645820159364,0.000351008332588,0.0017167414995,0.000820044582035,0.000844967126332,0.000346516612831,0.000777459333344,0.000762687594294,0.000820044582035,0.00175977142016,0.000449092124646,0.000311553052823,0.000430461890493,0.000309816778259,0.000844967126332,0.000449092124646,0.000457558145245,0.00010439441672,0.000223454708077,0.0010892488529,0.000346516612831,0.000311553052823,0.00010439441672,0.000608379053927,0.000410243606711,0.000645820159364,0.000777459333344,0.000430461890493,0.000223454708077,0.000410243606711,0.000715427219081
1450008984719330220,44,1450008894088000000,camera,0.916122768015,-0.20134351644,3.3274598376,0.734363102792,0.0804815383564,0.668472187221,0.0858981382437,0.00204725336587,0.000341386409514,0.000747278705708,0.000315718966081,0.00108317770267,0.000647976730864,0.000341386409514,0.00168984717212,0.000820029929803,0.000832953370347,0.000343996621681,0.000764651160048,0.000747278705708,0.000820029929803,0.00175354937421,0.000449624666988,0.000323328845632,0.000433246405895,0.000315718966081,0.000832953370347,0.000449624666988,0.000453040378717,0.000110112645246,0.000213253757505,0.00108317770267,0.000343996621681,0.000323328845632,0.000110112645246,0.000607161757923,0.000412563048176,0.000647976730864,0.000764651160048,0.000433246405895,0.000213253757505,0.000412563048176,0.00071048225185
1450008985970966772,45,1450008894167000000,camera,0.916256537974,-0.20143162923,3.3279114442,0.734328412254,0.0806731514715,0.66848698872,0.0858997759112,0.00203633543091,0.000369584576687,0.000784146473333,0.000304187465365,0.00107261845983,0.00063334367659,0.000369584576687,0.00168153509904,0.000785396605594,0.000824564344323,0.000349273659404,0.000767261160927,0.000784146473333,0.000785396605594,0.00176441976117,0.000441152308772,0.000298585017464,0.000425552235485,0.000304187465365,0.000824564344323,0.000441152308772,0.000447110410294,0.000103548379148,0.000213630160713,0.00107261845983,0.000349273659404,0.000298585017464,0.000103548379148,0.000599547715082,0.000408926902502,0.00063334367659,0.000767261160927,0.000425552235485,0.000213630160713,0.000408926902502,0.000713537458754
1450008986931295236,46,1450008894280000000,camera,0.916280991925,-0.20032353232,3.32810738741,0.734357077914,0.0806145733978,0.66846813704,0.0858564059091,0.00204591193697,0.000353211232608,0.000762729208375,0.000309847430301,0.00107957013332,0.000643629589772,0.000353211232608,0.00169177227508,0.000814003170188,0.000831607151014,0.000346897843059,0.000767494436994,0.000762729208375,0.000814003170188,0.00175367114731,0.000448351445957,0.000309609137775,0.000429922837485,0.000309847430301,0.000831607151014,0.000448351445957,0.000450773307146,0.000105113889213,0.000217461806274,0.00107957013332,0.000346897843059,0.000309609137775,0.000105113889213,0.000603605086716,0.000410486551228,0.000643629589772,0.000767494436994,0.000429922837485,0.000217461806274,0.000410486551228,0.00070973743455
1450008989348899314,47,1450008894368000000,camera,0.916526489619,-0.200231712633,3.3292131426,0.734318459138,0.0806360350276,0.668499086278,0.0859255612144,0.00208329304544,0.000345363756322,0.000767840260366,0.000328036094688,0.00110549082086,0.000663610186464,0.000345363756322,0.00172558240991,0.000853376365641,0.000851962018314,0.000357746749657,0.000789866191588,0.000767840260366,0.000853376365641,0.00178902739998,0.000470308805086,0.000329195073574,0.000454502977138,0.000328036094688,0.000851962018314,0.000470308805086,0.000464245667963,0.000112940089219,0.000224190091449,0.00110549082086,0.000357746749657,0.000329195073574,0.000112940089219,0.000621735595586,0.000426994857153,0.000663610186464,0.000789866191588,0.000454502977138,0.000224190091449,0.000426994857153,0.000731590018316
1450008995840177198,48,1450008894449000000,camera,0.916168861835,-0.198953441644,3.32868685378,0.734321160364,0.0806617323162,0.668498792147,0.0858806339006,0.00207101826793,0.00035079820655,0.000764006519477,0.000325028323128,0.00109620232814,0.000662929138019,0.00035079820655,0.00169363468897,0.000831891129951,0.000834317128292,0.000351336035709,0.000768722871436,0.000764006519477,0.000831891129951,0.00178656428238,0.00045841471843,0.000329054597127,0.000444048577275,0.000325028323128,0.000834317128292,0.00045841471843,0.000454798307346,0.000115683308083,0.00020828104799,0.00109620232814,0.000351336035709,0.000329054597127,0.000115683308083,0.000615097950365,0.000423244878504,0.000662929138019,0.000768722871436,0.000444048577275,0.00020828104799,0.000423244878504,0.000720193812209
1450008996952766866,49,1450008894607000000,camera,0.91618472029,-0.197766205278,3.32855853851,0.734313576254,0.0805577924156,0.668532429807,0.0857811407433,0.00208597546027,0.000352129023467,0.000773939637778,0.000329551377417,0.00110040495321,0.00067604758279,0.000352129023467,0.00172645713436,0.000872635186918,0.000846600437696,0.000361674538108,0.000787247487638,0.000773939637778,0.000872635186918,0.00178580154391,0.000476513600419,0.00031632936026,0.000457978953817,0.000329551377417,0.000846600437696,0.000476513600419,0.000457678752441,0.000111567967497,0.000224711638262,0.00110040495321,0.000361674538108,0.00031632936026,0.000111567967497,0.000614893831883,0.000430701044265,0.00067604758279,0.000787247487638,0.000457978953817,0.000224711638262,0.000430701044265,0.000726370969027
1450008997712720928,50,1450008894723000000,camera,0.916312803607,-0.196431450987,3.32887993508,0.734359331682,0.0804326015199,0.668502150156,0.0857428937096,0.00212579113845,0.000328103235246,0.000808922632394,0.000356967230066,0.00112509329097,0.00070943682486,0.000328103235246,0.00174079569089,0.000930954390797,0.000855828289387,0.000370182416608,0.000803833897902,0.000808922632394,0.000930954390797,0.00184289523021,0.000505228211042,0.000325222037899,0.000484728664456,0.000356967230066,0.000855828289387,0.000505228211042,0.000465788254094,0.000125062187932,0.000223036667815,0.00112509329097,0.000370182416608,0.000325222037899,0.000125062187932,0.000631419301572,0.000451537158618,0.00070943682486,0.000803833897902,0.000484728664456,0.000223036667815,0.000451537158618,0.000749794142609
1450008998275720930,51,1450008894816000000,camera,0.916585496103,-0.1933269326,3.32968440645,0.734277704016,0.0812790770816,0.668435086765,0.08616553716,0.00205013396344,0.000343858597607,0.000742366254011,0.000316746969768,0.00108423223682,0.000656074171407,0.000343858597607,0.00169999631461,0.000837786399802,0.000836928586173,0.000348257747134,0.000770466496304,0.000742366254011,0.000837786399802,0.0017427617947,0.000455296547236,0.000320240594748,0.000439218573049,0.000316746969768,0.000836928586173,0.000455296547236,0.000453789380501,0.000108099084955,0.000220313228463,0.00108423223682,0.000348257747134,0.000320240594748,0.000108099084955,0.000607095898898,0.000415987719124,0.000656074171407,0.000770466496304,0.000439218573049,0.000220313228463,0.000415987719124,0.000710539235051
1450008999153114439,52,1450008894909000000,camera,0.916324616663,-0.192518175627,3.32806828258,0.734369473734,0.080964033753,0.668383212467,0.0860824173593,0.00203628346623,0.000342263498239,0.000753662012945,0.000314171306526,0.0010773273594,0.000654202301587,0.000342263498239,0.00168289370823,0.000831038724816,0.000829342367545,0.000344751046265,0.000767630582507,0.000753662012945,0.000831038724816,0.00174134959344,0.000450079763285,0.000312682665276,0.000434471322024,0.000314171306526,0.000829342367545,0.000450079763285,0.000450690822684,0.000107690386753,0.000218001658489,0.0010773273594,0.000344751046265,0.000312682665276,0.000107690386753,0.000603536731536,0.000413080044069,0.000654202301587,0.000767630582507,0.000434471322024,0.000218001658489,0.000413080044069,0.000710292471661
1450008999494969135,53,1450008895040000000,camera,0.916450061321,-0.190907822261,3.32856660276,0.734323331645,0.0809935034013,0.668425614297,0.0861190754735,0.0020520935192,0.000337550838383,0.00070743038597,0.000324950980534,0.00109005265028,0.000671534609857,0.000337550838383,0.00169885981308,0.000863831796085,0.000839172530562,0.000351311327103,0.000768068322539,0.00070743038597,0.000863831796085,0.0017257783528,0.000464344660636,0.000337969261122,0.000449642731921,0.000324950980534,0.000839172530562,0.000464344660636,0.000455891319582,0.000111655615466,0.000221127139002,0.00109005265028,0.000351311327103,0.000337969261122,0.000111655615466,0.000612225103946,0.00042336237039,0.000671534609857,0.000768068322539,0.000449642731921,0.000221127139002,0.00042336237039,0.000706944380027
1450008999855222962,54,1450008895111000000,camera,0.916420724731,-0.189660806727,3.32820737097,0.734267891856,0.0810425215449,0.668480883186,0.0861166737931,0.0020272896683,0.000353925699804,0.000771200169308,0.00031175566715,0.00107208269028,0.000647736006802,0.000353925699804,0.00167268655175,0.000818250675119,0.000823172514638,0.000349107774168,0.000768203744883,0.000771200169308,0.000818250675119,0.00174836815871,0.000449918688308,0.000304377513262,0.000433742622906,0.00031175566715,0.000823172514638,0.000449918688308,0.000447708207312,0.000105869546126,0.000216934167764,0.00107208269028,0.000349107774168,0.000304377513262,0.000105869546126,0.000601193765348,0.000413604052082,0.000647736006802,0.000768203744883,0.000433742622906,0.000216934167764,0.000413604052082,0.000712579869515
1450009000223968368,55,1450008895184000000,camera,0.915987099957,-0.188325433765,3.32661862038,0.734303443555,0.0810315588933,0.668432676771,0.0861980038723,0.00201436722867,0.000378588938057,0.000752045718776,0.000290644758255,0.00106776363966,0.000633681021502,0.000378588938057,0.00167066094706,0.000779281578652,0.000824228580018,0.000347428372424,0.000767128951648,0.000752045718776,0.000779281578652,0.00172359518195,0.000428550214747,0.000306646501876,0.000417166925808,0.000290644758255,0.000824228580018,0.000428550214747,0.000448535414849,9.45153216541e-05,0.000222091745699,0.00106776363966,0.000347428372424,0.000306646501876,9.45153216541e-05,0.000599851293863,0.000403501341595,0.000633681021502,0.000767128951648,0.000417166925808,0.000222091745699,0.000403501341595,0.000707089357219
1450009000549929796,56,1450008895245000000,camera,0.916463788478,-0.187649365935,3.32825006935,0.734251112049,0.0811126885586,0.668474840656,0.0862404987215,0.00204871212289,0.000335562381156,0.000737082848793,0.000319976431736,0.00108495334822,0.000666057591147,0.000335562381156,0.0017030535767,0.000858241861351,0.000839536205619,0.000348007042874,0.000775472341647,0.000737082848793,0.000858241861351,0.00173548258879,0.000459339076479,0.000321624525431,0.000444218185457,0.000319976431736,0.000839536205619,0.000459339076479,0.000455404866921,0.000108616519671,0.000224458893686,0.00108495334822,0.000348007042874,0.000321624525431,0.000108616519671,0.000607855972913,0.000418332641741,0.000666057591147,0.000775472341647,0.000444218185457,0.000224458893686,0.000418332641741,0.000712648062328
1450009000692785830,57,1450008895353000000,camera,0.916390727433,-0.185802410058,3.32851880426,0.734209499362,0.0811379707953,0.668522953167,0.0861980384373,0.00205712560716,0.000386426264607,0.000748196375889,0.000308630925192,0.00109381624469,0.000662530004015,0.000386426264607,0.0016934689385,0.000814051460168,0.000836457226692,0.000359868603684,0.000777478202165,0.000748196375889,0.000814051460168,0.00175688415755,0.000447047145941,0.000328614230473,0.000439671507979,0.000308630925192,0.000836457226692,0.000447047145941,0.000456431962664,0.00010424389752,0.000220727993832,0.00109381624469,0.000359868603684,0.000328614230473,0.00010424389752,0.000616274803338,0.000422592306748,0.000662530004015,0.000777478202165,0.000439671507979,0.000220727993832,0.000422592306748,0.00072093024284
1450009000865093190,58,1450008895445000000,camera,0.916388562236,-0.1848671133,3.3279592565,0.734225942971,0.0812810025621,0.668473137337,0.0863094893381,0.00202432995295,0.000364602196288,0.000741083721831,0.000304004008957,0.00107345173065,0.000647047369683,0.000364602196288,0.00167311659834,0.000806820217128,0.000825537090642,0.000347987099831,0.000765067419234,0.000741083721831,0.000806820217128,0.00172610763718,0.000440457538295,0.000315627680099,0.000428724498743,0.000304004008957,0.000825537090642,0.000440457538295,0.000449125968246,0.000102314998386,0.000219294659368,0.00107345173065,0.000347987099831,0.000315627680099,0.000102314998386,0.000602721168263,0.000410591205558,0.000647047369683,0.000765067419234,0.000428724498743,0.000219294659368,0.000410591205558,0.000706450923109
1450009001010423562,59,1450008895523000000,camera,0.916797452359,-0.183428954219,3.32923203036,0.734240832693,0.0812874522505,0.668447279729,0.0863769873025,0.00204429654738,0.000347963683542,0.000783886792094,0.00031208602327,0.0010772591382,0.000642139649457,0.000347963683542,0.00169567285365,0.000812559782024,0.000832785732571,0.000345564627508,0.000775416150161,0.000783886792094,0.000812559782024,0.00176804903381,0.000447808558919,0.000301131571812,0.000432526712972,0.00031208602327,0.000832785732571,0.000447808558919,0.000451648880692,0.000107332048952,0.000217306185963,0.0010772591382,0.000345564627508,0.000301131571812,0.000107332048952,0.000601705073913,0.000410584641095,0.000642139649457,0.000775416150161,0.000432526712972,0.000217306185963,0.000410584641095,0.000719288330938
1450009001196323285,60,1450008895602000000,camera,0.916748622342,-0.182950107829,3.3288728907,0.734217775689,0.0813334300519,0.668465675714,0.0863873336255,0.0020575631223,0.000363817416282,0.000802487272085,0.000322520727591,0.00108869814328,0.000664358453846,0.000363817416282,0.00169005496964,0.000832195765238,0.000831288447562,0.000358416546813,0.000784007441134,0.000802487272085,0.000832195765238,0.00179306956897,0.000460218537626,0.000305222564993,0.000448236882529,0.000322520727591,0.000831288447562,0.000460218537626,0.000453378869245,0.000112064752944,0.000216391193765,0.00108869814328,0.000358416546813,0.000305222564994,0.000112064752944,0.000611412032809,0.000426608629913,0.000664358453846,0.000784007441134,0.000448236882529,0.000216391193765,0.000426608629913,0.000733067107484
1450009001328067131,61,1450008895702000000,camera,0.91652915469,-0.181945914919,3.32821658595,0.734137916061,0.0816142025582,0.668494317553,0.086579382895,0.0020490676256,0.000356336784812,0.000748610732216,0.000315085209584,0.00108745308978,0.000665154613937,0.000356336784812,0.0016948351796,0.00084118058561,0.000836649070316,0.00035274796398,0.000777017937806,0.000748610732216,0.00084118058561,0.00174397334252,0.000454295059073,0.000320435068966,0.00044129365122,0.000315085209584,0.000836649070316,0.000454295059073,0.000455429509369,0.000106364354173,0.000223548875863,0.00108745308978,0.00035274796398,0.000320435068966,0.000106364354173,0.000611106145344,0.000420028545213,0.000665154613937,0.000777017937806,0.00044129365122,0.000223548875863,0.000420028545213,0.000717101522365
1450009001453802950,62,1450008895842000000,camera,0.916791458334,-0.181002655228,3.3299453312,0.734201465599,0.0814687972816,0.668455527859,0.0864768770095,0.0020323352796,0.000352440768936,0.000771509650944,0.000311132849146,0.00107464044886,0.000648293716017,0.000352440768936,0.0016815217052,0.00081866845353,0.000827731970648,0.000347908651597,0.000772674281612,0.000771509650944,0.00081866845353,0.00175083263158,0.000448263231717,0.000304623826379,0.000434191057059,0.000311132849146,0.000827731970648,0.000448263231717,0.000449961337962,0.000105821228273,0.000219268945966,0.00107464044886,0.000347908651597,0.000304623826379,0.000105821228273,0.00060228779378,0.000412999522753,0.000648293716017,0.000772674281612,0.000434191057059,0.000219268945966,0.000412999522753,0.000715748581533
1450009001643694853,63,1450008895980000000,camera,0.916044112258,-0.179312095162,3.327516691,0.734317195804,0.0815203300114,0.668329839305,0.0864171142501,0.0020498734338,0.000348283299956,0.00073396809014,0.000312269184245,0.00108359443349,0.000658320896285,0.000348283299956,0.00170213293631,0.000832656296547,0.000838127618326,0.000345419723354,0.000769479831508,0.00073396809014,0.000832656296547,0.00173505672984,0.000448279581849,0.000320609700861,0.00043413483676,0.000312269184245,0.000838127618326,0.000448279581849,0.000453957737128,0.000106571520242,0.000220748120681,0.00108359443349,0.000345419723354,0.000320609700861,0.000106571520242,0.000605833754571,0.000413440735286,0.000658320896285,0.000769479831508,0.00043413483676,0.000220748120681,0.000413440735286,0.000708627556803
1450009001777785164,64,1450008896107000000,camera,0.91595669475,-0.177900062215,3.32779291838,0.734299586776,0.081579938325,0.668327548568,0.0865281361713,0.00210601398217,0.000323470307767,0.000786688365978,0.000347378661993,0.00111626045451,0.000701307808027,0.000323470307767,0.00173522521849,0.000907859413481,0.000855807574283,0.00035889747029,0.000798764731892,0.000786688365978,0.000907859413481,0.00181223743468,0.000486399745068,0.00032667867227,0.000471223974656,0.000347378661993,0.000855807574283,0.000486399745068,0.00046652220574,0.000123265214176,0.000221946923403,0.00111626045451,0.00035889747029,0.00032667867227,0.000123265214176,0.000626554798124,0.000441550605077,0.000701307808027,0.000798764731892,0.000471223974656,0.000221946923403,0.000441550605077,0.000744873887717
1450009001936457725,65,1450008896225000000,camera,0.916042737145,-0.177010985657,3.32785978792,0.734303549681,0.0814861289628,0.668339783291,0.0864883910335,0.00207418211034,0.000375518197021,0.000773718270693,0.000311106135027,0.00109915298887,0.000667727262707,0.000375518197021,0.0017068950934,0.000826978069515,0.000841922738702,0.000355733434781,0.000783487900978,0.000773718270693,0.000826978069515,0.00177678360402,0.000449379510373,0.00031662050054,0.000437440991869,0.000311106135027,0.000841922738702,0.000449379510373,0.000458395780423,0.00010519325521,0.000222785833684,0.00109915298887,0.000355733434781,0.00031662050054,0.00010519325521,0.000616815502318,0.000421344194484,0.000667727262707,0.000783487900978,0.000437440991869,0.000222785833684,0.000421344194484,0.000726118579736
1450009002064016048,66,1450008896317000000,camera,0.91606422398,-0.176189576148,3.32682108387,0.734278284639,0.08155234379,0.668329930027,0.0867163223426,0.0020458023995,0.000337687177507,0.000731188897756,0.000311560393239,0.00108473715857,0.00066000577474,0.000337687177507,0.00170116611258,0.000840289978067,0.000840856262778,0.000341829825724,0.000773073022482,0.000731188897756,0.000840289978067,0.00172610630471,0.000447087343009,0.000321015903646,0.00043292658083,0.000311560393239,0.000840856262778,0.000447087343009,0.000456734850565,0.000105556236734,0.000225596515815,0.00108473715857,0.000341829825724,0.000321015903646,0.000105556236734,0.00060797707584,0.000411483087261,0.00066000577474,0.000773073022482,0.00043292658083,0.000225596515815,0.000411483087261,0.000709471759912
1450009002204463086,67,1450008896421000000,camera,0.916590395902,-0.175373760422,3.32849969309,0.734158969551,0.0817265736359,0.668431172944,0.0867821503899,0.00203830356739,0.000341043638862,0.000719028914791,0.000323973555092,0.00108246539544,0.000678830539982,0.000341043638862,0.00168774158941,0.000861816937594,0.000832855111172,0.000349870138185,0.000771017161023,0.00071902891479,0.000861816937594,0.00172483909962,0.000457799303306,0.000331718612318,0.000449167533144,0.000323973555092,0.000832855111172,0.000457799303306,0.000453245690808,0.000112830960437,0.000218707632437,0.00108246539544,0.000349870138185,0.000331718612318,0.000112830960437,0.000608242881222,0.000424582439957,0.000678830539982,0.000771017161023,0.000449167533144,0.000218707632437,0.000424582439957,0.000713592978283
1450009002351180444,68,1450008896516000000,camera,0.916708920668,-0.174598961821,3.32960706414,0.73399748235,0.0819218570043,0.668598622165,0.0866740312217,0.00206558052571,0.000372924984523,0.000798538774741,0.00031117452626,0.00108952786328,0.000655695884739,0.000372924984523,0.00170744474189,0.000813438456738,0.000838155019608,0.000354868206794,0.00078597030415,0.000798538774741,0.000813438456738,0.00178829150632,0.000448371009654,0.000301326009129,0.000437067374485,0.00031117452626,0.000838155019608,0.000448371009654,0.000455039693616,0.000106169950788,0.000220247753085,0.00108952786328,0.000354868206794,0.000301326009129,0.000106169950788,0.000609489370337,0.00041867806454,0.000655695884739,0.00078597030415,0.000437067374485,0.000220247753085,0.00041867806454,0.000730406379607
1450009002495688149,69,1450008896610000000,camera,0.916601215889,-0.173725225012,3.32818976347,0.734109087049,0.0817758269654,0.66848088929,0.0867747837232,0.00204510311837,0.000358311217081,0.000734013173715,0.000315707013598,0.00108655559111,0.000662275594978,0.000358311217081,0.00168537183797,0.000823275320183,0.000832566706066,0.000350005316502,0.000769129187672,0.000734013173715,0.000823275320183,0.00174436903387,0.000446758591777,0.000332164754635,0.000440215851572,0.000315707013598,0.000832566706066,0.000446758591777,0.000454371782463,0.000110693291802,0.000214529327235,0.00108655559111,0.000350005316502,0.000332164754635,0.000110693291802,0.000611481825892,0.00041980826827,0.000662275594978,0.000769129187672,0.000440215851572,0.000214529327235,0.00041980826827,0.000715814851123
1450009002661346616,70,1450008896716000000,camera,0.916562767648,-0.17264426063,3.32784050894,0.734169596391,0.0815613853861,0.668432659508,0.0868361897539,0.0020857766028,0.000364493479533,0.000758689235907,0.000316327555814,0.00110381549762,0.000672943383805,0.000364493479533,0.00172850254546,0.000851839357585,0.000851508532642,0.000356733396512,0.000788640034089,0.000758689235907,0.000851839357585,0.00176828509883,0.000458871792921,0.000321123421439,0.000444618898705,0.000316327555814,0.000851508532642,0.000458871792921,0.000461562840332,0.000105513868781,0.00022912151386,0.00110381549762,0.000356733396512,0.000321123421439,0.000105513868781,0.000617828143335,0.000423048084064,0.000672943383805,0.000788640034089,0.000444618898705,0.00022912151386,0.000423048084064,0.000723915301938
1450009002846636760,71,1450008896833000000,camera,0.917056868635,-0.171613919565,3.32970158606,0.73406488192,0.0816794536328,0.668524870762,0.0869005935446,0.00206003340406,0.00035043394134,0.000785241496791,0.000319726914677,0.00108724034212,0.000664680582037,0.00035043394134,0.00169970932512,0.000832997269598,0.000835341273979,0.000348697837269,0.000779794881983,0.000785241496791,0.000832997269598,0.00178110016463,0.000452032182848,0.000309069391592,0.000439938483623,0.000319726914677,0.000835341273979,0.000452032182848,0.000454199047762,0.000112213457983,0.000214851897191,0.00108724034212,0.000348697837269,0.000309069391592,0.000112213457983,0.000608254396758,0.000419946804595,0.000664680582037,0.000779794881983,0.000439938483623,0.000214851897191,0.000419946804595,0.000727561134418
1450009002974480689,72,1450008896923000000,camera,0.917169243392,-0.170940349282,3.32956863382,0.733981541833,0.081764397242,0.668614869826,0.0868322258098,0.00204366252163,0.000362591401267,0.000786790653022,0.000312402445213,0.00107882259885,0.000655523168649,0.000362591401267,0.00169169261256,0.000821536836112,0.000830666653346,0.000352468934517,0.000780901549629,0.000786790653022,0.000821536836112,0.00176458381537,0.00044940457805,0.000299568928648,0.000438111334427,0.000312402445213,0.000830666653346,0.00044940457805,0.000450963915348,0.000106298071422,0.00022066938479,0.00107882259885,0.000352468934517,0.000299568928648,0.000106298071422,0.000603869702518,0.000417382843308,0.000655523168649,0.000780901549629,0.000438111334427,0.00022066938479,0.000417382843308,0.000723805491211
1450009003147447562,73,1450008897115000000,camera,0.916530150768,-0.170119009911,3.32805411852,0.733990152087,0.0821839548346,0.668562177907,0.086769052537,0.00204573788927,0.000339013709015,0.000766872166598,0.000322871794957,0.00108056634346,0.000670616356189,0.000339013709015,0.00168855123926,0.000850139749577,0.000829922733934,0.000347454502768,0.000773794575638,0.000766872166598,0.000850139749577,0.00175516557557,0.000456267831241,0.00030960687041,0.000443745488496,0.000322871794957,0.000829922733934,0.000456267831241,0.000450694973948,0.000112864281095,0.000216318638034,0.00108056634346,0.000347454502768,0.00030960687041,0.000112864281095,0.000604650847684,0.000421230869382,0.000670616356189,0.000773794575638,0.000443745488496,0.000216318638034,0.000421230869382,0.000719355591647
1450009003298351635,74,1450008897187000000,camera,0.916897718065,-0.169857014953,3.3299808562,0.734038299204,0.0820238692251,0.668532592499,0.0867411836805,0.00210000684078,0.000343114170445,0.000734527298187,0.000329113460621,0.00111256499003,0.000691106484268,0.000343114170445,0.00174486198325,0.000891001407479,0.000860318723071,0.00035650805679,0.000791034996822,0.000734527298187,0.000891001407479,0.00176320193304,0.000471966691791,0.000335305789048,0.000457120584044,0.000329113460621,0.000860318723071,0.000471966691791,0.000465978429085,0.000111576962748,0.000230732679705,0.00111256499003,0.00035650805679,0.000335305789048,0.000111576962748,0.000622797004766,0.000430336632066,0.000691106484268,0.000791034996822,0.000457120584044,0.000230732679705,0.000430336632066,0.000724522100726
1450009003427379718,75,1450008897256000000,camera,0.91643281713,-0.169252405649,3.32816748596,0.734068512998,0.0820515124639,0.668478864418,0.0868733293601,0.00208015363365,0.000354189126303,0.0007697763282,0.000322491736316,0.00110372006557,0.000670061276403,0.000354189126303,0.0017128602597,0.000833801772626,0.00084582254623,0.000351717427027,0.000784119014028,0.0007697763282,0.000833801772626,0.00179412978117,0.000452869437543,0.000332295187302,0.000444858397385,0.000322491736316,0.00084582254623,0.000452869437543,0.000462571065374,0.000114589182575,0.000214063906192,0.00110372006557,0.000351717427027,0.000332295187302,0.000114589182575,0.00062119475933,0.00042493967772,0.000670061276403,0.000784119014028,0.000444858397385,0.000214063906192,0.00042493967772,0.000734798072441
